{"cafes":[{"id":"node-30020303","name":"Tibet Haus","lat":52.4907103,"lng":13.3939814,"address":"Zossener Straße 19","tags":{"amenity":"restaurant","opening_hours":"12:00-24:00"},"amenity":"restaurant"},{"id":"node-84644780","name":"Cancun","lat":52.5044291,"lng":13.3827786,"address":"Anhalter Straße 1","tags":{"amenity":"restaurant","opening_hours":"PH,Mo-Su 11:30-02:00"},"amenity":"restaurant"},{"id":"node-253999302","name":"Back-Factory","lat":52.4862765,"lng":13.3561798,"address":"Hauptstraße 22","tags":{"opening_hours":"Mo-Fr 06:00-19:00; Sa 06:30-18:00; Su 07:00-16:00"}},{"id":"node-253999353","name":"DoubleEye","lat":52.4879922,"lng":13.3540483,"address":"Akazienstraße 22","tags":{"amenity":"cafe","opening_hours":"Mo-Fr 08:18-18:29; Sa 08:33-17:57; Su off"},"amenity":"cafe"},{"id":"node-254003168","name":"Yogi-Haus","lat":52.486278,"lng":13.3506678,"address":"Eisenacher Straße 54","tags":{"amenity":"restaurant","opening_hours":"Mo-Th, Su 11:30-23:00; Fr,Sa 11:30-24:00"},"amenity":"restaurant"},{"id":"node-254307092","name":"Le Faubourg","lat":52.5026926,"lng":13.3318821,"address":"Augsburger Straße 41","tags":{"amenity":"restaurant"},"amenity":"restaurant"},{"id":"node-271668412","name":"Mokka & Juice House","lat":52.4882026,"lng":13.3609478,"tags":{"amenity":"cafe"},"amenity":"cafe"},{"id":"node-273756679","name":"Sportsbar Heinrich's","lat":52.4614742,"lng":13.339716,"address":"Bismarckstraße 67","tags":{"amenity":"pub","opening_hours":"Mo-Th 12:00-24:00, Fr 12:00-02:00, Sa 10:00-02:00, Su 10:00-22:00"},"amenity":"pub"},{"id":"node-274239322","name":"cielo di berlino","lat":52.4881781,"lng":13.370321,"address":"Monumentenstraße 31","tags":{"amenity":"restaurant","opening_hours":"Su 15:00-21:00; Mo,We-Sa 17:00-22:00"},"amenity":"restaurant"},{"id":"node-275375441","name":"Café Nostalgie","lat":52.4882652,"lng":13.361927,"address":"Crellestraße 22","tags":{"amenity":"bar"},"amenity":"bar"},{"id":"node-278280125","name":"Vereinszimmer","lat":52.4900001,"lng":13.3825068,"tags":{"amenity":"restaurant","opening_hours":"Mo-Fr 08:00-20:00; Sa,Su 09:00-20:00"},"amenity":"restaurant"},{"id":"node-278280155","name":"Osteria Nº 1","lat":52.489775,"lng":13.3832177,"address":"Kreuzbergstraße 71","tags":{"amenity":"restaurant"},"amenity":"restaurant"},{"id":"node-278295436","name":"Barcomi's Café & Kaffeerösterei","lat":52.489026,"lng":13.3933796,"address":"Bergmannstraße 21","tags":{"amenity":"cafe","opening_hours":"Mo-Th 10:00-18:00; Fr-Su,PH 10:00-19:00; Dec 24 \"bis 16:00\"; Dec 25-26 off; Dec 31 \"bis 18:00\"; Jan 01 \"ab 11:00\""},"amenity":"cafe"},{"id":"node-278295467","name":"Pagode","lat":52.4893112,"lng":13.3933939,"tags":{"amenity":"restaurant","opening_hours":"Mo-Su 12:00-23:00"},"amenity":"restaurant"},{"id":"node-281513616","name":"Cafe Finovo","lat":52.4910478,"lng":13.3675144,"address":"Großgörschenstraße 12-14","tags":{"amenity":"cafe","opening_hours":"We-Su 10:00+; Tu 12:00+"},"amenity":"cafe"},{"id":"node-310377172","name":"Bahar Restaurant","lat":52.4814663,"lng":13.3483784,"address":"Hauptstraße 112","tags":{"amenity":"restaurant","opening_hours":"Mo-Th 11:00-23:00; Fr-Su 11:00-24:00"},"amenity":"restaurant"},{"id":"node-310377175","name":"Johann Mayer","lat":52.4791448,"lng":13.3438836,"address":"Innsbrucker Platz 4","tags":{"opening_hours":"Mo-Fr 06:00-18:00; Sa 07:00-13:00"}},{"id":"node-312697960","name":"Cafe Logo","lat":52.4945949,"lng":13.400091,"address":"Blücherstraße 61","tags":{"amenity":"pub","opening_hours":"15:00-06:00"},"amenity":"pub"},{"id":"node-312698799","name":"Kafkas Bäckerei","lat":52.4941425,"lng":13.4001541,"tags":{"opening_hours":"Mo-Sa 06:00-18:00; Su 06:00-16:00"}},{"id":"node-331251821","name":"Moghul","lat":52.4870643,"lng":13.3552616,"address":"Akazienstraße 5","tags":{"amenity":"restaurant","opening_hours":"Mo-Su,PH 12:00-24:00"},"amenity":"restaurant"},{"id":"node-333192881","name":"Wolke","lat":52.4650127,"lng":13.3441689,"address":"Rubensstraße 108","tags":{"amenity":"cafe","opening_hours":"Apr-Oct: 08:00-18:30; Nov-Mar: 08:00-17:30"},"amenity":"cafe"},{"id":"node-352936932","name":"Café Monaco","lat":52.49307,"lng":13.367236,"address":"Mansteinstraße 17","tags":{"amenity":"cafe","opening_hours":"Su-Th,PH 09:00-24:00, Fr,Sa 09:00-02:00"},"amenity":"cafe"},{"id":"node-359754354","name":"Parkcafé Pusteblume","lat":52.4802048,"lng":13.3365051,"address":"Durlacher Straße 2","tags":{"amenity":"cafe","opening_hours":"Mo-Su 10:00-20:00"},"amenity":"cafe"},{"id":"node-359754357","name":"Queen's Pub","lat":52.4821064,"lng":13.3483161,"address":"Hauptstraße 50","tags":{"amenity":"pub"},"amenity":"pub"},{"id":"node-383851727","name":"Bar Voyage","lat":52.4979752,"lng":13.3562993,"address":"Nollendorfstraße 1","tags":{"amenity":"bar","opening_hours":"Tu-Su 17:00-24:00+"},"amenity":"bar"},{"id":"node-407730065","name":"Gasthaus Renger-Patzsch","lat":52.4874226,"lng":13.3521024,"address":"Wartburgstraße 54","tags":{"amenity":"restaurant","opening_hours":"Mo-Sa 18:00-23:00; Su off"},"amenity":"restaurant"},{"id":"node-416047581","name":"Sangam","lat":52.4885059,"lng":13.3535892,"address":"Akazienstraße 19","tags":{"amenity":"restaurant","opening_hours":"PH,Mo-Su 12:00-23:00"},"amenity":"restaurant"},{"id":"node-416063201","name":"Trattoria Perla Jonica","lat":52.4873737,"lng":13.3539428,"address":"Belziger Straße 20","tags":{"amenity":"restaurant","opening_hours":"Mo-Su 12:00-24:00"},"amenity":"restaurant"},{"id":"node-416063203","name":"Gottlob","lat":52.4893577,"lng":13.3535516,"address":"Akazienstraße 17","tags":{"amenity":"pub","opening_hours":"Mo-Th 09:00-01:00, Fr-Sa 09:00-02:00, Su 10:00-01:00, Dec 24 09:00-18:00, Dec 25-26 11:00-22:00"},"amenity":"pub"},{"id":"node-416634865","name":"Villa Franca","lat":52.4891914,"lng":13.3546489,"address":"Vorbergstraße 10","tags":{"amenity":"restaurant"},"amenity":"restaurant"},{"id":"node-416634868","name":"La Cocotte","lat":52.4892061,"lng":13.3544624,"address":"Vorbergstraße 10","tags":{"amenity":"restaurant","opening_hours":"We-Sa 18:00-00:00; Mo-Tu off"},"amenity":"restaurant"},{"id":"node-417009820","name":"Der Weinlobbyist","lat":52.48657,"lng":13.3592734,"address":"Kolonnenstraße 62","tags":{"amenity":"bar","opening_hours":"Mo,Th,Su 17:00-23:00; Fr,Sa 17:00-00:00; Tu,We off"},"amenity":"bar"},{"id":"node-419317472","name":"Robbys Calypso Bar","lat":52.4882259,"lng":13.361793,"address":"Crellestraße 22","tags":{"amenity":"pub"},"amenity":"pub"},{"id":"node-428114310","name":"Brammibal’s Donuts","lat":52.4857245,"lng":13.3549951,"address":"Hauptstraße 26","tags":{"amenity":"cafe","opening_hours":"Mo-Su 10:00-20:00"},"amenity":"cafe"},{"id":"node-442387119","name":"Thoben","lat":52.4601382,"lng":13.3849041,"tags":{}},{"id":"node-442390302","name":"Amma","lat":52.457185,"lng":13.3836821,"address":"Tempelhofer Damm 214","tags":{"amenity":"restaurant","opening_hours":"Mo-Su 11:30-24:00"},"amenity":"restaurant"},{"id":"node-442390305","name":"Taverna Ta Dio Aderfia","lat":52.4566463,"lng":13.3836436,"address":"Tempelhofer Damm 218","tags":{"amenity":"restaurant","opening_hours":"Mo,We-Fr 15:00-23:00; Sa 12:00-23:00; PH,Su 12:00-22:00"},"amenity":"restaurant"},{"id":"node-442390880","name":"Back & Snack","lat":52.4552139,"lng":13.383669,"tags":{"opening_hours":"Mo-Fr 06:00-17:00; Sa,Su 07:00-16:00"}},{"id":"node-443604357","name":"Austria","lat":52.4887412,"lng":13.3968219,"address":"Bergmannstraße 30","tags":{"amenity":"restaurant","opening_hours":"Mo 16:00-23:00; Tu-Th,Su 12:00-23:00; Fr-Sa 12:00-24:00"},"amenity":"restaurant"},{"id":"node-446658744","name":"Adam's Eck","lat":52.4656796,"lng":13.3943909,"address":"Germaniastraße 150a","tags":{"amenity":"pub","opening_hours":"Mo-Sa 12:00-22:00; Su 10:00-22:00"},"amenity":"pub"},{"id":"node-448670490","name":"Esmeralda's Inka-Café","lat":52.4861765,"lng":13.3503476,"address":"Belziger Straße 44","tags":{"amenity":"restaurant","opening_hours":"We-Su 12:00-19:00"},"amenity":"restaurant"},{"id":"node-462676995","name":"Zagreb","lat":52.4500364,"lng":13.3452012,"address":"Steglitzer Damm 54","tags":{"amenity":"restaurant","opening_hours":"Mo-Su 11:30-23:00"},"amenity":"restaurant"},{"id":"node-471134935","name":"Bäckerei Baran","lat":52.4552278,"lng":13.3761091,"tags":{}},{"id":"node-482737289","name":"Fior di Latte","lat":52.4900563,"lng":13.3831738,"address":"Kreuzbergstraße","tags":{"amenity":"ice_cream"},"amenity":"ice_cream"},{"id":"node-482737290","name":"vanille & marille Eismanufaktur","lat":52.4914869,"lng":13.3862658,"address":"Hagelberger Straße 1","tags":{"amenity":"ice_cream","opening_hours":"Mar-Oct Mo-Su 12:00-20:00"},"amenity":"ice_cream"},{"id":"node-499480721","name":"Roma","lat":52.4854106,"lng":13.3476879,"address":"Belziger Straße 60","tags":{"amenity":"restaurant","opening_hours":"11:30-23:00"},"amenity":"restaurant"},{"id":"node-505944632","name":"Mr. Minsch","lat":52.493531,"lng":13.3820141,"address":"Yorckstraße 15","tags":{"amenity":"cafe","opening_hours":"Mo-Fr 11:00-18:00; Sa, Su 10:00-18:00"},"amenity":"cafe"},{"id":"node-505992481","name":"Yorckschlösschen","lat":52.4936224,"lng":13.3822703,"address":"Yorckstraße 15","tags":{"amenity":"restaurant","opening_hours":"Su-Th 18:00-24:00, Fr,Sa 18:00-01:00"},"amenity":"restaurant"},{"id":"node-512575817","name":"Clash","lat":52.4919589,"lng":13.3885567,"address":"Gneisenaustraße 2","tags":{"amenity":"pub"},"amenity":"pub"},{"id":"node-531282072","name":"Bavarian","lat":52.5041463,"lng":13.3812523,"address":"Askanischer Platz 4","tags":{"amenity":"restaurant"},"amenity":"restaurant"},{"id":"node-531283073","name":"Veli's Restaurant","lat":52.5055987,"lng":13.3805743,"address":"Stresemannstraße 95","tags":{"amenity":"restaurant"},"amenity":"restaurant"},{"id":"node-531325548","name":"Osteria Caruso","lat":52.506311,"lng":13.3770107,"address":"Köthener Straße 38","tags":{"amenity":"restaurant","opening_hours":"Mo-Fr 12:00-24:00; Sa 15:30-24:00"},"amenity":"restaurant"},{"id":"node-564643502","name":"Gaststätte am Kreuzberg","lat":52.4879044,"lng":13.3763836,"address":"Monumentenstraße 22","tags":{"amenity":"restaurant"},"amenity":"restaurant"},{"id":"node-564645780","name":"+39 Piùtrentanove","lat":52.4897934,"lng":13.3795333,"address":"Möckernstraße 73a","tags":{"amenity":"restaurant","opening_hours":"Mo-Su,PH 16:00-23:30"},"amenity":"restaurant"},{"id":"node-566185651","name":"Sichuan China-Restaurant","lat":52.4522392,"lng":13.333892,"address":"Albrechtstraße 92","tags":{"amenity":"restaurant","opening_hours":"Tu-Su 12:00-23:00; Mo off"},"amenity":"restaurant"},{"id":"node-572690128","name":"Mutter","lat":52.4949883,"lng":13.35252,"address":"Hohenstaufenstraße 4","tags":{"amenity":"pub"},"amenity":"pub"},{"id":"node-576157235","name":"Slumberland","lat":52.4968247,"lng":13.3537835,"address":"Goltzstraße 24","tags":{"amenity":"bar","opening_hours":"Mo-Th 17:00-01:00, Fr 17:00-03:00, Sa 11:00-03:00"},"amenity":"bar"},{"id":"node-577100959","name":"Berkis","lat":52.4968797,"lng":13.3536371,"address":"Winterfeldtstraße 45","tags":{"amenity":"restaurant","opening_hours":"Mo-Sa 11:30-24:00, Su,PH 13:00-24:00"},"amenity":"restaurant"},{"id":"node-582600265","name":"April","lat":52.4874692,"lng":13.3498498,"address":"Eisenacher Straße 75","tags":{"amenity":"restaurant","opening_hours":"Mo-Su 09:00-23:00"},"amenity":"restaurant"},{"id":"node-582767734","name":"Felix Austria","lat":52.4888555,"lng":13.3950143,"address":"Bergmannstraße 26","tags":{"amenity":"restaurant","opening_hours":"Mo-Su 12:00-00:00"},"amenity":"restaurant"},{"id":"node-603055954","name":"Museumsrestaurant Anhalt","lat":52.4986614,"lng":13.3768929,"address":"Trebbiner Straße 9","tags":{"amenity":"restaurant","opening_hours":"Tu-Fr 09:00-17:30; Sa,Su,PH 10:00-18:00"},"amenity":"restaurant"},{"id":"node-611825696","name":"Doree","lat":52.4812898,"lng":13.3504323,"address":"Dominicusstraße 37","tags":{"amenity":"restaurant"},"amenity":"restaurant"},{"id":"node-620899063","name":"Back & Shop","lat":52.4822249,"lng":13.3771275,"tags":{"opening_hours":"Mo-Fr 06:30-17:00; Su 08:00-14:00"}},{"id":"node-621274121","name":"Rudi & Rosa","lat":52.4541235,"lng":13.3817861,"address":"Viktoriastraße 10-18","tags":{"amenity":"cafe","opening_hours":"Mo-Sa 10:00-22:00;Su 10:00-19:30"},"amenity":"cafe"},{"id":"node-629116417","name":"Bierpause","lat":52.4874557,"lng":13.392604,"address":"Willibald-Alexis-Straße 31","tags":{"amenity":"pub"},"amenity":"pub"},{"id":"node-632312625","name":"Yummy Kitchen","lat":52.4920939,"lng":13.3943849,"address":"Zossener Straße 13","tags":{"amenity":"restaurant","opening_hours":"Mo-Su 11:30-22:00"},"amenity":"restaurant"},{"id":"node-646574151","name":"NOAH'S","lat":52.5027181,"lng":13.3429638,"address":"Ansbacher Straße 21","tags":{"amenity":"restaurant","opening_hours":"09:00-23:00"},"amenity":"restaurant"},{"id":"node-646574554","name":"Nuovo Antica Roma","lat":52.5026294,"lng":13.3434652,"address":"Wittenbergplatz 5","tags":{"amenity":"restaurant"},"amenity":"restaurant"},{"id":"node-650415501","name":"Tonsai","lat":52.4594035,"lng":13.3818805,"address":"Kaiserin-Augusta-Straße 73","tags":{"amenity":"restaurant","opening_hours":"Mo-Su 12:00-23:00"},"amenity":"restaurant"},{"id":"node-667886515","name":"Ja! Niko Ja!","lat":52.5064666,"lng":13.3460679,"address":"Budapester Straße 13","tags":{"amenity":"restaurant"},"amenity":"restaurant"},{"id":"node-668953779","name":"Coffee Cult","lat":52.4893414,"lng":13.3932506,"address":"Bergmannstraße 89","tags":{"amenity":"cafe","opening_hours":"Su-Fr 07:00-21:00; Sa 08:00-21:00"},"amenity":"cafe"},{"id":"node-668954190","name":"Jederzeit","lat":52.4894164,"lng":13.392622,"address":"Bergmannstraße 92","tags":{"amenity":"cafe","opening_hours":"Mo-Su 09:30-18:30"},"amenity":"cafe"},{"id":"node-670658006","name":"Gümüs","lat":52.4804592,"lng":13.3520052,"address":"Dominicusstraße 43","tags":{"amenity":"cafe","opening_hours":"Mo-Fr 05:00-18:00; Sa 05:00-16:00; PH,Su 06:00-18:00"},"amenity":"cafe"},{"id":"node-670658016","name":"Zam Zam","lat":52.4875005,"lng":13.3572426,"address":"Hauptstraße 15","tags":{"amenity":"restaurant","opening_hours":"Su-Th 12:00-23:00, Fr,Sa 12:00-24:00"},"amenity":"restaurant"},{"id":"node-670658034","name":"Don Gelato","lat":52.4865601,"lng":13.3605488,"tags":{"amenity":"ice_cream"},"amenity":"ice_cream"},{"id":"node-670658037","name":"Zoulou Bar","lat":52.4899871,"lng":13.359534,"address":"Hauptstraße 4","tags":{"amenity":"pub"},"amenity":"pub"},{"id":"node-670658039","name":"Eis-Café Vannini","lat":52.4945809,"lng":13.3607729,"address":"Potsdamer Straße 170-170b","tags":{"amenity":"ice_cream"},"amenity":"ice_cream"},{"id":"node-691484692","name":"Chaplin","lat":52.4689488,"lng":13.3336209,"tags":{"amenity":"restaurant","opening_hours":"We-Su 16:00-23:00+"},"amenity":"restaurant"},{"id":"node-691484772","name":"Kipos","lat":52.466685,"lng":13.3388677,"address":"Beckerstraße 15","tags":{"amenity":"restaurant"},"amenity":"restaurant"},{"id":"node-691484790","name":"Thoben","lat":52.4718181,"lng":13.3350435,"address":"Lauterstraße 17-18","tags":{"opening_hours":"Mo-Sa 08:00-18:00; Su 11:30-17:00"}},{"id":"node-691484832","name":"Wiedemann","lat":52.4720511,"lng":13.3350424,"address":"Lauterstraße 16","tags":{"opening_hours":"Mo-Fr 07:00-18:00; Sa 07:00-14:00; Su 08:00-12:00"}},{"id":"node-691484842","name":"LuLa Deli & Grill","lat":52.4723157,"lng":13.3350244,"address":"Lauterstraße 14/15","tags":{"amenity":"restaurant","opening_hours":"Mo-Su 09:00-24:00"},"amenity":"restaurant"},{"id":"node-693830507","name":"Cafe Bäckerei","lat":52.50467,"lng":13.34207,"address":"Kurfürstenstraße 101","tags":{"amenity":"cafe"},"amenity":"cafe"},{"id":"node-704002914","name":"ishin","lat":52.4941864,"lng":13.331275,"address":"Bundesallee 203","tags":{"amenity":"restaurant","opening_hours":"Mo-Sa 10:00-22:00"},"amenity":"restaurant"},{"id":"node-704913843","name":"Bella Italia","lat":52.4884134,"lng":13.3409245,"tags":{"amenity":"cafe"},"amenity":"cafe"},{"id":"node-704913864","name":"Harmonie","lat":52.4885941,"lng":13.3418879,"address":"Grunewaldstraße 60","tags":{}},{"id":"node-726786332","name":"Brigantino","lat":52.4683534,"lng":13.3322792,"address":"Rheinstraße 53","tags":{"amenity":"restaurant","opening_hours":"Mo-Sa 17:00+"},"amenity":"restaurant"},{"id":"node-727851984","name":"ess eins","lat":52.4865603,"lng":13.3606762,"tags":{"amenity":"cafe","opening_hours":"Mo-Su 10:00-19:00"},"amenity":"cafe"},{"id":"node-727852032","name":"Coffee House","lat":52.4905678,"lng":13.3493941,"address":"Eisenacher Straße 87-88","tags":{"amenity":"cafe","opening_hours":"Mo-Su 08:00-23:00"},"amenity":"cafe"},{"id":"node-727852043","name":"Winterfeldt Schokoladen","lat":52.4945858,"lng":13.3541633,"address":"Goltzstraße 23","tags":{"amenity":"cafe","opening_hours":"Su 12:00-18:00; Mo-Fr 10:00-19:00; Sa 10:00-18:00"},"amenity":"cafe"},{"id":"node-728689928","name":"Berliner Bier-Akademie","lat":52.4982545,"lng":13.3351547,"address":"Fürther Straße 8","tags":{"amenity":"pub","opening_hours":"Mo-Sa 13:00-01:00, Su 13:00-22:00"},"amenity":"pub"},{"id":"node-730172932","name":"Stehcafé 72","lat":52.4971132,"lng":13.3640563,"tags":{"amenity":"cafe"},"amenity":"cafe"},{"id":"node-747493608","name":"Merenda Snacks & Spezialitäten aus Italien","lat":52.4905325,"lng":13.3338592,"address":"Güntzelstraße 63","tags":{"amenity":"cafe"},"amenity":"cafe"},{"id":"node-750112089","name":"Czerr","lat":52.4881224,"lng":13.3350638,"address":"Berliner Straße 3","tags":{"opening_hours":"Mo-Fr 07:00-17:00; Sa 07:00-13:00; Su 08:00-12:00"}},{"id":"node-753108331","name":"Melek Bäckerei","lat":52.4938863,"lng":13.3841652,"address":"Yorckstraße 14","tags":{"opening_hours":"Mo-Fr 05:00-16:00; Sa,Su 07:00-16:00"}},{"id":"node-765928569","name":"Landhaus Schöneberg","lat":52.4867956,"lng":13.3421285,"address":"Wartburgstraße 19","tags":{"amenity":"restaurant","opening_hours":"Mo-Su,PH 08:00-23:00"},"amenity":"restaurant"},{"id":"node-765928649","name":"Tadka","lat":52.4815261,"lng":13.3502468,"address":"Feurigstraße 38","tags":{"amenity":"restaurant","opening_hours":"12:00-21:00"},"amenity":"restaurant"},{"id":"node-765928712","name":"Pinelli","lat":52.4792213,"lng":13.3498817,"address":"Ebersstraße 67","tags":{"amenity":"restaurant","opening_hours":"Tu-Fr 11:30-23:00"},"amenity":"restaurant"},{"id":"node-771332585","name":"Rüdiger's","lat":52.4947925,"lng":13.3394366,"address":"Motzstraße 63","tags":{"amenity":"restaurant"},"amenity":"restaurant"},{"id":"node-771332593","name":"Cafe Belmont","lat":52.5042035,"lng":13.3438641,"tags":{"amenity":"cafe"},"amenity":"cafe"},{"id":"node-771332651","name":"Restaurante Loggia","lat":52.5036107,"lng":13.3428877,"address":"Ansbacher Straße 11","tags":{"amenity":"restaurant"},"amenity":"restaurant"},{"id":"node-791403934","name":"Vamos","lat":52.4972236,"lng":13.3541854,"address":"Winterfeldtstraße 42","tags":{"amenity":"restaurant","opening_hours":"Mo-Su 11:30-01:00"},"amenity":"restaurant"},{"id":"node-795276400","name":"Holland Mühle","lat":52.4504132,"lng":13.3419835,"address":"Steglitzer Damm 40","tags":{"amenity":"pub","opening_hours":"Tu-Su, PH 11:00-03:00"},"amenity":"pub"},{"id":"node-800128344","name":"JamJam Eis","lat":52.4629091,"lng":13.3386564,"tags":{"amenity":"cafe"},"amenity":"cafe"},{"id":"node-801768589","name":"Restaurant Split","lat":52.4963757,"lng":13.3904509,"address":"Blücherplatz 2","tags":{"amenity":"restaurant","opening_hours":"Mo-Su 11:30-22:00"},"amenity":"restaurant"},{"id":"node-802697273","name":"M & M Back","lat":52.4946804,"lng":13.3607925,"address":"Potsdamer Straße 170-170b","tags":{"opening_hours":"Mo-Fr 05:00-20:00; Sa,Su,PH 06:00-20:00"}},{"id":"node-823476227","name":"Pfeffereule","lat":52.4742834,"lng":13.3813025,"address":"Manfred-von-Richthofen-Straße 158","tags":{"amenity":"pub","opening_hours":"Tu-Sa 18:00+"},"amenity":"pub"},{"id":"node-829284585","name":"Groschen Keller","lat":52.4621063,"lng":13.3389645,"address":"Bismarckstraße 7","tags":{"amenity":"restaurant","opening_hours":"Mo-Su 12:00-22:00"},"amenity":"restaurant"},{"id":"node-829297713","name":"Bäckerei-Konditorei Pierre Wieser","lat":52.4628741,"lng":13.3419958,"address":"Sachsenwaldstraße 30","tags":{"opening_hours":"Mo-Fr 06:00-16:00; Sa 06:00-12:00; Su 07:00-11:00"}},{"id":"node-831416217","name":"Tee Tea Thé","lat":52.4902868,"lng":13.3533984,"address":"Goltzstraße 2","tags":{"amenity":"cafe","opening_hours":"Mo-Su 10:00-19:00"},"amenity":"cafe"},{"id":"node-832840930","name":"Flying Roasters","lat":52.4915142,"lng":13.3962811,"address":"Gneisenaustraße 85","tags":{"amenity":"cafe","opening_hours":"Mo-Su 9:00-18:00"},"amenity":"cafe"},{"id":"node-835553668","name":"Imbiss & Afghan Brot","lat":52.4821041,"lng":13.3491975,"address":"Hauptstraße 114-115","tags":{}},{"id":"node-846601793","name":"Steinecke","lat":52.4858047,"lng":13.3334089,"address":"Badensche Straße 42","tags":{"opening_hours":"Mo-Fr 06:30-19:00; Sa 06:30-18:00; Su 08:00-14:00"}},{"id":"node-849600885","name":"Xxenia","lat":52.5059216,"lng":13.3435623,"tags":{"amenity":"restaurant"},"amenity":"restaurant"},{"id":"node-849601059","name":"9:00 pm","lat":52.5060947,"lng":13.3444743,"tags":{"amenity":"bar"},"amenity":"bar"},{"id":"node-852661172","name":"Bäcker Wiedemann","lat":52.4649065,"lng":13.3951319,"address":"Germaniastraße 12/13","tags":{"opening_hours":"Mo-Sa 07:00-20:00; PH off"}},{"id":"node-853810631","name":"Bio Eissalon tanne B.","lat":52.4892469,"lng":13.3939761,"address":"Marheinekeplatz 15","tags":{"amenity":"ice_cream","opening_hours":"Mo-Fr 11:00-19:00; Sa 11:00-18:00; Su off"},"amenity":"ice_cream"},{"id":"node-861837748","name":"Aaina","lat":52.4568725,"lng":13.3836513,"address":"Tempelhofer Damm 216","tags":{"amenity":"restaurant","opening_hours":"Mo-Su 12:00-23:00"},"amenity":"restaurant"},{"id":"node-884222103","name":"Lac Viet","lat":52.4676683,"lng":13.3315808,"address":"Rheinstraße 50","tags":{"amenity":"restaurant","opening_hours":"Mo-Sa 11:30-22:00; Su off"},"amenity":"restaurant"},{"id":"node-886379991","name":"Tre Xanh","lat":52.4874999,"lng":13.3965047,"address":"Heimstraße 8","tags":{"amenity":"restaurant","opening_hours":"Mo-Th 11:30-22:30; Sa,Su 12:00-23:30"},"amenity":"restaurant"},{"id":"node-886396519","name":"Jiddoh","lat":52.4973104,"lng":13.3541756,"address":"Maaßenstraße 14","tags":{"amenity":"restaurant"},"amenity":"restaurant"},{"id":"node-895374738","name":"Taverna Athene","lat":52.4983176,"lng":13.3853725,"address":"Tempelhofer Ufer 12","tags":{"amenity":"restaurant","opening_hours":"Mo off; Tu-Su 15:00-23:00"},"amenity":"restaurant"},{"id":"node-907811974","name":"Trattoria da Pizzo","lat":52.4596179,"lng":13.3637266,"address":"Eythstraße 45","tags":{"amenity":"restaurant","opening_hours":"Apr-Sep: Mo-Su,PH 12:00-24:00; Oct-Mar: Tu-Su,PH 12:00-23:00"},"amenity":"restaurant"},{"id":"node-911994246","name":"Tra My","lat":52.4719991,"lng":13.3350409,"address":"Lauterstraße 16","tags":{"amenity":"restaurant","opening_hours":"Mo-Fr 11:30-22:00; Su,PH 13:30-22:00"},"amenity":"restaurant"},{"id":"node-925522970","name":"Kartoffelkiste","lat":52.5047873,"lng":13.3376813,"address":"Tauentzienstraße 9-12","tags":{"amenity":"restaurant"},"amenity":"restaurant"},{"id":"node-925523575","name":"Ming Dynastie","lat":52.5047808,"lng":13.337295,"address":"Tauentzienstraße 9-12","tags":{"amenity":"restaurant"},"amenity":"restaurant"},{"id":"node-925524894","name":"leo coffee","lat":52.5044803,"lng":13.3378959,"tags":{"amenity":"cafe"},"amenity":"cafe"},{"id":"node-928018925","name":"Schäfer's","lat":52.4840741,"lng":13.3838004,"address":"Manfred-von-Richthofen-Straße 8","tags":{"opening_hours":"Mo-Fr 06:00-18:00; Sa 07:00-16:00; Su 08:00-17:00"}},{"id":"node-929208382","name":"Stadtklause","lat":52.5008266,"lng":13.3866122,"address":"Stresemannstraße 37","tags":{"amenity":"pub","opening_hours":"Mo-Sa 15:00-24:00"},"amenity":"pub"},{"id":"node-935637519","name":"Cube","lat":52.4908411,"lng":13.3940164,"tags":{"amenity":"restaurant","opening_hours":"Mo-Su 12:00-23:00"},"amenity":"restaurant"},{"id":"node-935637558","name":"Beumer & Lutum","lat":52.4906624,"lng":13.3943428,"address":"Zossener Straße 34","tags":{"opening_hours":"Mo-Fr 07:00-18:00; Sa,Su 08:00-14:00"}},{"id":"node-935637567","name":"cuccuma","lat":52.4905777,"lng":13.3943553,"tags":{"amenity":"cafe","opening_hours":"Mo-Fr 07:30-19:00; Sa,Su 09:00-19:00"},"amenity":"cafe"},{"id":"node-955240383","name":"Mangiare Berlin","lat":52.486482,"lng":13.3504514,"address":"Eisenacher Straße 54","tags":{"amenity":"restaurant","opening_hours":"We,Th,Su 17:00-22:00; Fr,Sa 17:00-23:00"},"amenity":"restaurant"},{"id":"node-957661480","name":"Bejte Ethiopia","lat":52.4993517,"lng":13.3570701,"address":"Zietenstraße 8","tags":{"amenity":"restaurant","opening_hours":"Mo-Fr 16:00-02:00, Sa-Su 14:00-02:00"},"amenity":"restaurant"},{"id":"node-963643044","name":"Maselli Ristorante","lat":52.4916792,"lng":13.3908912,"address":"Nostitzstraße 49","tags":{"amenity":"restaurant"},"amenity":"restaurant"},{"id":"node-963643045","name":"Balkaymak Simit Evi","lat":52.492421,"lng":13.388492,"address":"Gneisenaustraße 3","tags":{"amenity":"restaurant","opening_hours":"7:00-22:00"},"amenity":"restaurant"},{"id":"node-963681282","name":"Fratelli La Bionda","lat":52.4887419,"lng":13.3973435,"address":"Bergmannstraße 31","tags":{"amenity":"restaurant","opening_hours":"Mo-Su 18:00+"},"amenity":"restaurant"},{"id":"node-963681285","name":"Steinecke","lat":52.4890853,"lng":13.3976852,"tags":{"opening_hours":"Mo-Fr 06:30-18:00; Sa 07:00-17:00; Su 07:00-13:00"}},{"id":"node-970422265","name":"No. 22","lat":52.4879159,"lng":13.3946276,"address":"Friesenstraße 22","tags":{"amenity":"cafe"},"amenity":"cafe"},{"id":"node-983602481","name":"La Mamma","lat":52.4894641,"lng":13.396443,"address":"Marheinekeplatz 4","tags":{"amenity":"restaurant"},"amenity":"restaurant"},{"id":"node-989905701","name":"Alte Pumpe","lat":52.5051973,"lng":13.3581381,"address":"Lützowstraße 42","tags":{"amenity":"restaurant","opening_hours":"Mo-Fr 10:00-18:00; PH off"},"amenity":"restaurant"},{"id":"node-1000198750","name":"Nuova Mirabella","lat":52.4654911,"lng":13.3838958,"address":"Alt-Tempelhof 27","tags":{"amenity":"restaurant","opening_hours":"Mo-Su 12:00-24:00"},"amenity":"restaurant"},{"id":"node-1001470681","name":"Hohen","lat":52.4881524,"lng":13.3650504,"tags":{"opening_hours":"Mo-Fr 06:00-17:00; Su 07:00-16:00"}},{"id":"node-1001470709","name":"Choice","lat":52.4880723,"lng":13.3544133,"address":"Akazienstraße 9","tags":{"amenity":"restaurant","opening_hours":"Mo-Sa 11:45-23:30"},"amenity":"restaurant"},{"id":"node-1001470733","name":"Nonno","lat":52.4877957,"lng":13.3546493,"address":"Akazienstraße 7A","tags":{"amenity":"bar","opening_hours":"Mo-Th 17:00-24:00; Fr-Sa 15:00-01:00; Su 15:00-23:00"},"amenity":"bar"},{"id":"node-1015811407","name":"Gon 80","lat":52.4858135,"lng":13.3751041,"address":"Eylauer Straße 16","tags":{"amenity":"restaurant","opening_hours":"PH,Tu-Su 12:00-22:00"},"amenity":"restaurant"},{"id":"node-1041471016","name":"Back & Coffee Shop","lat":52.5051108,"lng":13.3785008,"tags":{"opening_hours":"Mo-Fr 06:00-19:00; Sa 06:00-17:00"}},{"id":"node-1044916822","name":"MASTAN","lat":52.490347,"lng":13.4019817,"address":"Gneisenaustraße 67","tags":{"amenity":"restaurant","opening_hours":"Tu-Th 18:00-24:00, Fr,Sa 17:00-24:00"},"amenity":"restaurant"},{"id":"node-1045519895","name":"Otto Schruppke","lat":52.4821553,"lng":13.3514014,"address":"Feurigstraße 34","tags":{"amenity":"pub"},"amenity":"pub"},{"id":"node-1108235754","name":"Maigold","lat":52.4881786,"lng":13.3525685,"address":"Merseburger Straße 7","tags":{"amenity":"bar","opening_hours":"Mo-Su 18:00+"},"amenity":"bar"},{"id":"node-1110467753","name":"Gatto Nero","lat":52.4526569,"lng":13.3712229,"address":"Attilastraße 20","tags":{"amenity":"restaurant"},"amenity":"restaurant"},{"id":"node-1122054312","name":"Amma","lat":52.4637543,"lng":13.3310196,"address":"Feuerbachstraße 31","tags":{"amenity":"restaurant","opening_hours":"Mo-Th 11:30-23:00; Fr 11:30-24:00; Sa 12:00-24:00; Su 12:00-23:00"},"amenity":"restaurant"},{"id":"node-1137567654","name":"Weinbeisser","lat":52.4742961,"lng":13.3329289,"address":"Handjerystraße 90","tags":{"amenity":"cafe"},"amenity":"cafe"},{"id":"node-1163845234","name":"Pavlov's Bar","lat":52.4875802,"lng":13.3751277,"address":"Eylauer Straße 26","tags":{"amenity":"bar","opening_hours":"Su-Th 19:00-01:00, Fr,Sa 19:00-03:00"},"amenity":"bar"},{"id":"node-1168683268","name":"Nila","lat":52.4865603,"lng":13.3557273,"address":"Akazienstraße 3","tags":{"amenity":"restaurant","opening_hours":"12:00-22:00"},"amenity":"restaurant"},{"id":"node-1168923233","name":"Aki Ryu","lat":52.4894806,"lng":13.3923972,"address":"Bergmannstraße 93","tags":{"amenity":"restaurant","opening_hours":"Mo off; Tu-Th 12:00-23:00; Fr-Sa 12:00-24:00; Su,PH 13:00-23:00"},"amenity":"restaurant"},{"id":"node-1170532369","name":"Canova","lat":52.4630193,"lng":13.3443786,"address":"Rubensstraße 124","tags":{"amenity":"restaurant","opening_hours":"Mo off; Tu-Fr,Su 12:00-18:00"},"amenity":"restaurant"},{"id":"node-1170555155","name":"New Yak & Yeti","lat":52.4695855,"lng":13.34364,"address":"Rubensstraße 66","tags":{"amenity":"restaurant","opening_hours":"12:00-23:00; Tu off"},"amenity":"restaurant"},{"id":"node-1170555186","name":"Oder Brot","lat":52.4695644,"lng":13.343396,"tags":{"opening_hours":"Mo-Fr 06:00-18:00; Sa 07:00-13:00"}},{"id":"node-1170625296","name":"Ristorante La Marianna","lat":52.4646458,"lng":13.3386915,"address":"Feuerbachstraße 63","tags":{"amenity":"restaurant","opening_hours":"Mo-Su,PH 12:00-23:00"},"amenity":"restaurant"},{"id":"node-1170625456","name":"Spalato","lat":52.4602073,"lng":13.3397378,"address":"Bismarckstraße 64b","tags":{"amenity":"restaurant","opening_hours":"We-Mo 12:00-21:00"},"amenity":"restaurant"},{"id":"node-1170633948","name":"Duo","lat":52.4510479,"lng":13.3410754,"address":"Steglitzer Damm 29","tags":{"amenity":"restaurant","opening_hours":"Mo-Su,PH 12:00-23:00"},"amenity":"restaurant"},{"id":"node-1199283858","name":"Ullstein Cafe","lat":52.4524525,"lng":13.3840009,"tags":{}},{"id":"node-1209659439","name":"Kuchenkultur","lat":52.492664,"lng":13.3829619,"address":"Großbeerenstraße 28d","tags":{"amenity":"cafe","opening_hours":"Mo 14:00-18:00; We-Su,PH 12:00-18:00"},"amenity":"cafe"},{"id":"node-1271006408","name":"Willy's Bistro","lat":52.500366,"lng":13.388343,"address":"Wilhelmstraße 140","tags":{"amenity":"restaurant","opening_hours":"Mo-Th 09:00-11:30"},"amenity":"restaurant"},{"id":"node-1273053926","name":"Exclusive Coffee","lat":52.5041076,"lng":13.3376151,"address":"Tauentzienstraße 9","tags":{"amenity":"cafe"},"amenity":"cafe"},{"id":"node-1275935262","name":"Wirtschaftswunder","lat":52.493236,"lng":13.3842479,"tags":{"amenity":"pub","opening_hours":"Th 17:00-04:00, Fr,Sa 17:00-05:00, Su-We 17:00-03:00"},"amenity":"pub"},{"id":"node-1303018241","name":"Locke's Gondel","lat":52.4892262,"lng":13.3488595,"address":"Eisenacher Straße 42","tags":{"amenity":"pub","opening_hours":"Mo-Th 14:00-24:00; Fr 14:00-01:00, Sa 13:00-01:00, Su 13:00-24:00"},"amenity":"pub"},{"id":"node-1312826395","name":"BackHausLiberda","lat":52.493343,"lng":13.3951153,"address":"Fürbringerstraße 30","tags":{"opening_hours":"Mo-Fr 06:00-18:00; Sa 07:00-17:00; Su,PH 08:00-15:00"}},{"id":"node-1313558841","name":"Boelcke’s Kleines Gasthaus","lat":52.482515,"lng":13.3770615,"tags":{"amenity":"pub"},"amenity":"pub"},{"id":"node-1314411062","name":"Trattoria Toscana","lat":52.4713888,"lng":13.3850537,"address":"Tempelhofer Damm 104","tags":{"amenity":"restaurant","opening_hours":"Tu-Su 11:00-24:00"},"amenity":"restaurant"},{"id":"node-1314614830","name":"bagel coffee culture","lat":52.4906157,"lng":13.3863191,"address":"Mehringdamm 66","tags":{"amenity":"cafe","opening_hours":"Mo-Fr 08:00-18:00; Sa 8:30-18:30; Su 09:00-18:00"},"amenity":"cafe"},{"id":"node-1314614854","name":"Rausch Gold","lat":52.4909346,"lng":13.3864196,"address":"Mehringdamm 62","tags":{"amenity":"pub","opening_hours":"Mo-Fr 20:00-04:00+"},"amenity":"pub"},{"id":"node-1327867344","name":"BissBack","lat":52.460742,"lng":13.3396912,"address":"Bismarckstraße 65A","tags":{}},{"id":"node-1332197462","name":"Rubens Back","lat":52.473942,"lng":13.3435125,"address":"Rubensstraße 37","tags":{}},{"id":"node-1333812248","name":"Goldfisch","lat":52.4640428,"lng":13.3311615,"address":"Schöneberger Straße 10","tags":{"amenity":"pub"},"amenity":"pub"},{"id":"node-1333812249","name":"Thoben","lat":52.4639085,"lng":13.3315579,"address":"Schöneberger Straße 8","tags":{"amenity":"cafe","opening_hours":"Mo-Sa 07:00-18:00"},"amenity":"cafe"},{"id":"node-1333812252","name":"Punta Sportsbar","lat":52.4637913,"lng":13.3310762,"tags":{"amenity":"bar","opening_hours":"PH,Mo-Su 00:00-24:00"},"amenity":"bar"},{"id":"node-1334480462","name":"Pizzeria Laila","lat":52.4946966,"lng":13.4007103,"address":"Tempelherrenstraße 2","tags":{"amenity":"restaurant","opening_hours":"Mo-Fr 12:00-24:00; Sa-Su 15:00-24:00"},"amenity":"restaurant"},{"id":"node-1336704611","name":"Bergmanns","lat":52.4904343,"lng":13.3920962,"address":"Riemannstraße 13","tags":{"amenity":"restaurant","opening_hours":"We-Fr 14:00-23:00; Sa-Su 10:00-23:00"},"amenity":"restaurant"},{"id":"node-1349297207","name":"Arkade","lat":52.451845,"lng":13.3786129,"tags":{"amenity":"restaurant","opening_hours":"Tu-Su 12:00-21:00; PH 12:00-21:00"},"amenity":"restaurant"},{"id":"node-1349331547","name":"Restaurant Café Aurel","lat":52.4662347,"lng":13.3839426,"tags":{"amenity":"restaurant"},"amenity":"restaurant"},{"id":"node-1352860176","name":"Da Dante","lat":52.4877988,"lng":13.3575416,"address":"Hauptstraße 14","tags":{"amenity":"restaurant","opening_hours":"10:00-24:00"},"amenity":"restaurant"},{"id":"node-1363833363","name":"Café Lebensart","lat":52.4553547,"lng":13.3856182,"address":"Tempelhofer Damm 227","tags":{"amenity":"cafe","opening_hours":"Mo-Sa 09:00-20:00; Su 10:00-18:00"},"amenity":"cafe"},{"id":"node-1376631924","name":"Bar Tolucci","lat":52.4902429,"lng":13.3488565,"address":"Eisenacher Straße 86","tags":{"amenity":"restaurant","opening_hours":"Mo-Th 17:00-24:00+, Fr-Su 12:00-24:00+"},"amenity":"restaurant"},{"id":"node-1387515956","name":"Lovely Bakery","lat":52.465632,"lng":13.3809397,"address":"Schönburgstraße 1","tags":{"opening_hours":"Mo-Fr 06:00-18:00; Sa 07:00-16:00"}},{"id":"node-1390934997","name":"Majha Restaurant","lat":52.4656745,"lng":13.3799588,"address":"Alt-Tempelhof 51","tags":{"amenity":"restaurant","opening_hours":"So-Tu 12:00-24:00; Fr, Sa 12:00-01:00"},"amenity":"restaurant"},{"id":"node-1392330615","name":"Ristorante Bella Italia","lat":52.4880808,"lng":13.3396562,"address":"Bayerischer Platz 8","tags":{"amenity":"restaurant"},"amenity":"restaurant"},{"id":"node-1392695509","name":"Bäckerei Johann Mayer","lat":52.4786229,"lng":13.3458435,"address":"Ebersstraße 42","tags":{"opening_hours":"Mo-Fr 06:00-18:00; Sa 07:00-13:00; Su 08:00-12:30"}},{"id":"node-1392695551","name":"Odessa Mama","lat":52.4785697,"lng":13.3450114,"address":"Innsbrucker Platz 3","tags":{"amenity":"restaurant","opening_hours":"Tu-Su 12:30-22:00"},"amenity":"restaurant"},{"id":"node-1395153852","name":"Que Pasa","lat":52.4892832,"lng":13.3935929,"address":"Bergmannstraße 88","tags":{"amenity":"restaurant","opening_hours":"Freitag: 15Uhr - offenes Ende, Samstag 12Uhr - offenes Ende"},"amenity":"restaurant"},{"id":"node-1397070343","name":"Asia Time","lat":52.4674412,"lng":13.3313339,"address":"Rheinstraße 49","tags":{"amenity":"restaurant","opening_hours":"Tu-Su 12:00-22:00"},"amenity":"restaurant"},{"id":"node-1397070387","name":"Staabi Back & Bistro Kiosk","lat":52.5049434,"lng":13.3679278,"tags":{"amenity":"cafe"},"amenity":"cafe"},{"id":"node-1402330097","name":"Peter Schlemihl","lat":52.4876209,"lng":13.3908878,"address":"Willibald-Alexis-Straße 25","tags":{"amenity":"restaurant","opening_hours":"Mo 00:00-01:00; Tu 17:00-24:00; We-Su 00:00-01:00,17:00-24:00"},"amenity":"restaurant"},{"id":"node-1406456059","name":"Resonanz","lat":52.479236,"lng":13.349687,"tags":{"amenity":"pub","opening_hours":"Apr-Sep: 17:00-02:00; Oct-Mar: 18:00-02:00; Su off"},"amenity":"pub"},{"id":"node-1409476638","name":"NICO Café Bar","lat":52.4636073,"lng":13.3321769,"address":"Feuerbachstraße","tags":{"amenity":"cafe"},"amenity":"cafe"},{"id":"node-1431856371","name":"Steakhouse Asador","lat":52.5036412,"lng":13.3880831,"address":"Wilhelmstraße 22","tags":{"amenity":"restaurant","opening_hours":"Mo-Su 16:00-23:30"},"amenity":"restaurant"},{"id":"node-1434231548","name":"Uzbek Eats","lat":52.4885005,"lng":13.3378355,"address":"Grunewaldstraße 49","tags":{"amenity":"restaurant","opening_hours":"Tu-Sa 12:00-20:00"},"amenity":"restaurant"},{"id":"node-1442933536","name":"cafe (unbenannt)","lat":52.4587508,"lng":13.3894021,"tags":{"amenity":"cafe"},"amenity":"cafe"},{"id":"node-1453995663","name":"Dapoer","lat":52.5054025,"lng":13.3974265,"address":"Ritterstraße 60B","tags":{"amenity":"restaurant","opening_hours":"Mo-Su 12:00-15:00, 17:00-22:00"},"amenity":"restaurant"},{"id":"node-1461549274","name":"Bavarian","lat":52.5046073,"lng":13.3380569,"address":"Tauentzienstraße 9-12","tags":{"amenity":"restaurant"},"amenity":"restaurant"},{"id":"node-1470020221","name":"Rosa+Schwarz","lat":52.4934395,"lng":13.3884678,"address":"Mehringdamm 33","tags":{"amenity":"cafe"},"amenity":"cafe"},{"id":"node-1472505562","name":"Charlie's Tea","lat":52.5058941,"lng":13.3737159,"address":"Eichhornstraße 1","tags":{"amenity":"cafe"},"amenity":"cafe"},{"id":"node-1484847608","name":"Diomira","lat":52.5026176,"lng":13.3851524,"address":"Hedemannstraße 31","tags":{"amenity":"restaurant","opening_hours":"Mo-Su 11:00-01:00"},"amenity":"restaurant"},{"id":"node-1499645480","name":"restaurant (unbenannt)","lat":52.47851,"lng":13.3809098,"tags":{"amenity":"restaurant"},"amenity":"restaurant"},{"id":"node-1509659321","name":"Ixthys","lat":52.4945916,"lng":13.3543953,"address":"Pallasstraße 21","tags":{"amenity":"restaurant","opening_hours":"Mo-Sa 12:00-21:30; Su,PH off"},"amenity":"restaurant"},{"id":"node-1516265394","name":"Hofpfisterei","lat":52.5028492,"lng":13.3428267,"tags":{"opening_hours":"Mo-Fr 08:00-19:00; Sa 09:00-15:00"}},{"id":"node-1519970045","name":"Stay","lat":52.4895119,"lng":13.3477991,"address":"Grunewaldstraße 29","tags":{"amenity":"cafe"},"amenity":"cafe"},{"id":"node-1519970048","name":"Café Papyon","lat":52.4891692,"lng":13.3440296,"address":"Grunewaldstraße 40","tags":{"amenity":"cafe"},"amenity":"cafe"},{"id":"node-1519970121","name":"Bei Joschi","lat":52.4893523,"lng":13.3447293,"tags":{"amenity":"pub"},"amenity":"pub"},{"id":"node-1522122185","name":"Chi-Chi-Kan","lat":52.4899829,"lng":13.3529653,"address":"Goltzstraße 52","tags":{"amenity":"restaurant","opening_hours":"Tu-Su,PH 12:00-23:00; Mo off"},"amenity":"restaurant"},{"id":"node-1525332844","name":"Salut!","lat":52.4910645,"lng":13.3534365,"address":"Goltzstraße 7","tags":{"amenity":"bar","opening_hours":"Mo-Su 18:00+"},"amenity":"bar"},{"id":"node-1525332865","name":"Chez Zola","lat":52.4909939,"lng":13.3534331,"address":"Goltzstraße 7","tags":{"amenity":"restaurant","opening_hours":"We-Fr 18:00-22:00, Sa 13:00-21:00"},"amenity":"restaurant"},{"id":"node-1551867698","name":"Tor 25","lat":52.4977655,"lng":13.3792487,"address":"Möckernstraße 26","tags":{"amenity":"cafe","opening_hours":"Tu-Fr 9:00-17:30;Sa-Su 10:00-18:00"},"amenity":"cafe"},{"id":"node-1562429764","name":"Steakhaus & Pizzeria Angus","lat":52.4900856,"lng":13.3835194,"address":"Kreuzbergstraße","tags":{"amenity":"restaurant","opening_hours":"Mo-Su 11:30-24:00"},"amenity":"restaurant"},{"id":"node-1574177654","name":"Cafe do Brazil","lat":52.4853027,"lng":13.3852349,"address":"Dudenstraße 2","tags":{"amenity":"restaurant","opening_hours":"Th-Su 16:00-24:00"},"amenity":"restaurant"},{"id":"node-1574282332","name":"Wiedemann","lat":52.484338,"lng":13.3843727,"address":"Manfred-von-Richthofen-Straße 4","tags":{"opening_hours":"Mo-Fr 06:00-17:00; Sa 06:00-14:00; Su 08:00-12:00"}},{"id":"node-1574928518","name":"Flair","lat":52.45484,"lng":13.3763855,"address":"Alarichstraße 21","tags":{"amenity":"pub"},"amenity":"pub"},{"id":"node-1589659413","name":"Kumpelnest 3000","lat":52.5030829,"lng":13.3663544,"tags":{"amenity":"bar"},"amenity":"bar"},{"id":"node-1601806278","name":"Halil's Gemüsekebap","lat":52.491016,"lng":13.3940706,"tags":{"amenity":"restaurant","opening_hours":"Su-Th 10:00-24:00, Fr,Sa 10:00-01:00"},"amenity":"restaurant"},{"id":"node-1601806281","name":"Helvaci Ali","lat":52.4910917,"lng":13.3940977,"address":"Zossener Straße 16","tags":{"amenity":"cafe","opening_hours":"Su-Th 12:00-22:00; Fr,Sa 12:00-23:00"},"amenity":"cafe"},{"id":"node-1601806390","name":"Pizzeria Alte Forno","lat":52.4912511,"lng":13.3941456,"tags":{"amenity":"restaurant","opening_hours":"Su-Th 11:00-01:00, Fr,Sa 11:00-02:00"},"amenity":"restaurant"},{"id":"node-1607815772","name":"Ajpnia","lat":52.4868332,"lng":13.3430245,"address":"Wartburgstraße 18","tags":{"amenity":"bar","opening_hours":"We 19:00+; Sa 20:00+"},"amenity":"bar"},{"id":"node-1613061201","name":"Murli Wale","lat":52.4713497,"lng":13.3380687,"address":"Hedwigstraße 5","tags":{"amenity":"restaurant","opening_hours":"Su-Th 11:30-22:00; Fr-Sa 11:30-23:00"},"amenity":"restaurant"},{"id":"node-1614808073","name":"Trattoria á Muntagnola","lat":52.4988559,"lng":13.344132,"address":"Fuggerstraße 27","tags":{"amenity":"restaurant","opening_hours":"Mo-Su 17:00-00:00"},"amenity":"restaurant"},{"id":"node-1631554531","name":"Pitelli's","lat":52.4672655,"lng":13.331463,"address":"Dickhardtstraße 27","tags":{"amenity":"restaurant","opening_hours":"Tu-Sa 17:30-24:00"},"amenity":"restaurant"},{"id":"node-1639362080","name":"Restaurant Glühwurm","lat":52.4713263,"lng":13.3332245,"address":"Handjerystraße 77","tags":{"amenity":"restaurant","opening_hours":"Mo-Su 12:00-01:00"},"amenity":"restaurant"},{"id":"node-1678461301","name":"Mare e Monti","lat":52.4634598,"lng":13.3387851,"address":"Bismarckstraße 3","tags":{"amenity":"restaurant","opening_hours":"Mo-Su,PH 12:00-24:00"},"amenity":"restaurant"},{"id":"node-1681243899","name":"Trattoria Sicilia","lat":52.467165,"lng":13.3417515,"address":"Beckerstraße 5","tags":{"amenity":"restaurant","opening_hours":"Mo-Su 12:00-23:30"},"amenity":"restaurant"},{"id":"node-1681306883","name":"Britta","lat":52.4638078,"lng":13.3353201,"address":"Lauenburger Straße 2 I","tags":{"amenity":"pub"},"amenity":"pub"},{"id":"node-1706974407","name":"Maharadscha","lat":52.4987623,"lng":13.3451577,"address":"Fuggerstraße 21","tags":{"amenity":"restaurant","opening_hours":"Mo-Su 17:00-23:00, Mo-Fr 12:00-16:00"},"amenity":"restaurant"},{"id":"node-1713171968","name":"Chicken Club","lat":52.4889086,"lng":13.3593106,"address":"Hauptstraße 154","tags":{"amenity":"restaurant","opening_hours":"Mo-Sa 11:30-00:00; So 11:30-23:00"},"amenity":"restaurant"},{"id":"node-1718477776","name":"Auszeit","lat":52.4771771,"lng":13.3324832,"address":"Handjerystraße 1","tags":{"amenity":"pub","opening_hours":"PH,Mo-Su 09:00+"},"amenity":"pub"},{"id":"node-1725693370","name":"REDSdeli","lat":52.4900931,"lng":13.3837738,"address":"Kreuzbergstraße 10","tags":{"amenity":"restaurant","opening_hours":"Mo 11:30+; We-Fr 11:30+; Sa 12:00+; Su 11:00+"},"amenity":"restaurant"},{"id":"node-1726845091","name":"Delhi 6","lat":52.5019404,"lng":13.3910883,"address":"Friedrichstraße 237","tags":{"amenity":"restaurant","opening_hours":"Mo-Su 11:30-24:00"},"amenity":"restaurant"},{"id":"node-1738706616","name":"Frida&Diego","lat":52.4991876,"lng":13.3436186,"address":"Fuggerstraße 28","tags":{"amenity":"restaurant"},"amenity":"restaurant"},{"id":"node-1738706618","name":"Restaurant Elefant","lat":52.4990141,"lng":13.3453747,"address":"Fuggerstraße 18","tags":{"amenity":"restaurant","opening_hours":"Mo-Su 12:00-23:00"},"amenity":"restaurant"},{"id":"node-1738706619","name":"Ceylon Bay","lat":52.4990532,"lng":13.3449467,"address":"Fuggerstraße 20","tags":{"amenity":"restaurant"},"amenity":"restaurant"},{"id":"node-1746692345","name":"Leckerback Café","lat":52.5036739,"lng":13.3462051,"tags":{"amenity":"cafe"},"amenity":"cafe"},{"id":"node-1746696908","name":"Caytre","lat":52.5036578,"lng":13.346719,"tags":{"amenity":"restaurant","opening_hours":"Mo-Fr 12:00-22:30; Sa 17:00-22:30"},"amenity":"restaurant"},{"id":"node-1753752059","name":"Eis Bär","lat":52.4770702,"lng":13.3711351,"address":"Gontermannstraße 56","tags":{"amenity":"cafe"},"amenity":"cafe"},{"id":"node-1774557609","name":"Berlinchen","lat":52.4669935,"lng":13.3439385,"address":"Rubensstraße 88","tags":{"amenity":"pub"},"amenity":"pub"},{"id":"node-1774557663","name":"Bäckerei & Konditorei Kadakal","lat":52.4676955,"lng":13.3457958,"address":"Grazer Platz 5","tags":{}},{"id":"node-1779210654","name":"Nonne und Zwerg","lat":52.4926352,"lng":13.3966309,"address":"Mittenwalder Straße 13","tags":{"amenity":"restaurant","opening_hours":"Mo-Fr 10:00-24:00, Sa 13:00-24:00; Su off"},"amenity":"restaurant"},{"id":"node-1800828950","name":"Boccacelli","lat":52.4970743,"lng":13.3557787,"address":"Winterfeldtstraße 34","tags":{"amenity":"restaurant"},"amenity":"restaurant"},{"id":"node-1800828968","name":"Karabach Restaurant","lat":52.4978392,"lng":13.3546087,"address":"Maaßenstraße 9","tags":{"amenity":"restaurant"},"amenity":"restaurant"},{"id":"node-1809944626","name":"Varadero","lat":52.4891131,"lng":13.3552405,"address":"Vorbergstraße 11","tags":{"amenity":"bar"},"amenity":"bar"},{"id":"node-1813041523","name":"Café Bäckerei","lat":52.5046959,"lng":13.3419514,"tags":{"opening_hours":"Mo-Su 06:00-17:00"}},{"id":"node-1813041644","name":"Marlene Bar","lat":52.5067921,"lng":13.3450842,"tags":{"amenity":"bar"},"amenity":"bar"},{"id":"node-1814087037","name":"Umami Mitte","lat":52.5043215,"lng":13.3911115,"address":"Friedrichstraße 30","tags":{"amenity":"restaurant"},"amenity":"restaurant"},{"id":"node-1816857024","name":"Café Bistro Bonjour","lat":52.4998823,"lng":13.3622746,"tags":{}},{"id":"node-1820785897","name":"Landwirt","lat":52.4960309,"lng":13.3375669,"address":"Regensburger Straße 7","tags":{"amenity":"restaurant","opening_hours":"Mo-Su 12:00-00:00"},"amenity":"restaurant"},{"id":"node-1839915551","name":"Restaurant Paracas II","lat":52.5016407,"lng":13.3915274,"address":"Friedrichstraße 12","tags":{"amenity":"restaurant","opening_hours":"Mo-Tu off; We-Fr 14:00-24:00; Sa-Su 12:00-24:00"},"amenity":"restaurant"},{"id":"node-1850625817","name":"Vanille & Marille","lat":52.4872163,"lng":13.3535138,"address":"Belziger Straße 24","tags":{"amenity":"ice_cream","opening_hours":"Mar-Oct Mo-Su 12:00-21:00"},"amenity":"ice_cream"},{"id":"node-1852738792","name":"Cafe Palladin","lat":52.494573,"lng":13.3580211,"address":"Pallasstraße 8","tags":{"amenity":"cafe","opening_hours":"\"nach Vereinbarung\""},"amenity":"cafe"},{"id":"node-1852959785","name":"Dennewitz-Klause","lat":52.4964129,"lng":13.3653627,"address":"Bülowstraße 38","tags":{"amenity":"pub","opening_hours":"Tu-Sa 18:00+, Su,Mo off"},"amenity":"pub"},{"id":"node-1869023712","name":"City Chicken","lat":52.4649341,"lng":13.3858321,"address":"Tempelhofer Damm 149","tags":{"amenity":"restaurant","opening_hours":"Mo-Sa 11:00-22:00; Su 11:00-22:00"},"amenity":"restaurant"},{"id":"node-1870419333","name":"The Cup","lat":52.4969107,"lng":13.3520038,"address":"Winterfeldtstraße 54i","tags":{"amenity":"cafe","opening_hours":"Mo-Sa 08:00-19:00; Su 09:00-19:00"},"amenity":"cafe"},{"id":"node-1870419336","name":"Coffee Date","lat":52.4970766,"lng":13.3531602,"address":"Winterfeldtstraße 48","tags":{"amenity":"cafe"},"amenity":"cafe"},{"id":"node-1870419338","name":"Café Honig","lat":52.4971233,"lng":13.3534856,"address":"Winterfeldtstraße 46","tags":{"amenity":"cafe"},"amenity":"cafe"},{"id":"node-1870419341","name":"Green Door Bar","lat":52.497044,"lng":13.3529334,"address":"Winterfeldtstraße 50","tags":{"amenity":"bar","opening_hours":"Mo-Th,Su 19:00-01:00, Fr,Sa 19:00-02:00"},"amenity":"bar"},{"id":"node-1870419369","name":"Winterfeld","lat":52.496819,"lng":13.3513647,"address":"Winterfeldtstraße 58","tags":{"amenity":"restaurant","opening_hours":"PH,Su-Th 11:30-21:00; Fr,Sa 11:30-22:00"},"amenity":"restaurant"},{"id":"node-1870419375","name":"Papaya","lat":52.4972066,"lng":13.3540669,"address":"Winterfeldtstraße 42","tags":{"amenity":"restaurant","opening_hours":"Mo-Su,PH 12:00-16:00,17:00-22:00"},"amenity":"restaurant"},{"id":"node-1870419380","name":"KiezEis","lat":52.4971063,"lng":13.3533676,"address":"Winterfeldtstraße 46","tags":{"amenity":"ice_cream","opening_hours":"Mo-Sa 12:00-18:00"},"amenity":"ice_cream"},{"id":"node-1870490929","name":"Baltas Coffee Shop","lat":52.4934156,"lng":13.3538625,"address":"Goltzstraße 17","tags":{"amenity":"cafe","opening_hours":"Mo-Su 09:00-20:30"},"amenity":"cafe"},{"id":"node-1870490931","name":"Golzo","lat":52.4940479,"lng":13.3540184,"address":"Goltzstraße 21","tags":{"amenity":"cafe"},"amenity":"cafe"},{"id":"node-1870490937","name":"Maharaja","lat":52.4939638,"lng":13.3539977,"address":"Goltzstraße 20","tags":{"amenity":"restaurant","opening_hours":"Mo-Su 12:00-24:00"},"amenity":"restaurant"},{"id":"node-1870490938","name":"Ombretta","lat":52.4921071,"lng":13.3535428,"address":"Goltzstraße 12a","tags":{"amenity":"cafe"},"amenity":"cafe"},{"id":"node-1870490942","name":"Shayan","lat":52.4943591,"lng":13.3540951,"address":"Goltzstraße 23","tags":{"amenity":"restaurant","opening_hours":"Mo-Su 12:00-24:00"},"amenity":"restaurant"},{"id":"node-1871865192","name":"Inselnest","lat":52.4839719,"lng":13.3615872,"address":"Leberstraße 23","tags":{"amenity":"pub","opening_hours":"24/7"},"amenity":"pub"},{"id":"node-1871902483","name":"Wirtshaus Heuberger","lat":52.4848294,"lng":13.3600402,"address":"Gotenstraße 1","tags":{"amenity":"restaurant","opening_hours":"Su-Fr 12:00-24:00; Sa 15:00-24:00"},"amenity":"restaurant"},{"id":"node-1882869703","name":"Prinzknecht","lat":52.4989776,"lng":13.3429028,"address":"Fuggerstraße 33","tags":{"amenity":"pub","opening_hours":"Su-Th 15:00-02:00, Fr,Sa 15:00-03:00"},"amenity":"pub"},{"id":"node-1909011254","name":"Persepolis","lat":52.5023512,"lng":13.3515495,"address":"Kurfürstenstraße 127","tags":{"amenity":"restaurant"},"amenity":"restaurant"},{"id":"node-1909011255","name":"Sakura IV","lat":52.5023656,"lng":13.3511601,"address":"Kurfürstenstraße 126","tags":{"amenity":"restaurant","opening_hours":"Mo-Su 12:00-23:00"},"amenity":"restaurant"},{"id":"node-1915578953","name":"Stagger Lee","lat":52.4975858,"lng":13.3514801,"address":"Nollendorfstraße 27","tags":{"amenity":"bar"},"amenity":"bar"},{"id":"node-1915589264","name":"Hasir (Schöneberg)","lat":52.4976965,"lng":13.3540872,"address":"Maaßenstraße 10","tags":{"amenity":"restaurant"},"amenity":"restaurant"},{"id":"node-1915589289","name":"Nachbar","lat":52.4975047,"lng":13.3541391,"address":"Maaßenstraße 12","tags":{"amenity":"bar","opening_hours":"Mo-Su,PH 17:00-22:00+"},"amenity":"bar"},{"id":"node-1915589295","name":"Kreta","lat":52.4975684,"lng":13.3541236,"address":"Maaßenstraße 12","tags":{"amenity":"restaurant","opening_hours":"Tu-Fr 16:00-24:00; Sa,Su 12:00-24:00"},"amenity":"restaurant"},{"id":"node-1915596857","name":"Aki Tatsu","lat":52.4972372,"lng":13.3549267,"address":"Winterfeldtstraße 40","tags":{"amenity":"restaurant","opening_hours":"Tu-Sa 12:00-23:00; Su,PH 14:00-23:00"},"amenity":"restaurant"},{"id":"node-1915596864","name":"Amrit (Schöneberg)","lat":52.4972817,"lng":13.3547765,"address":"Winterfeldtstraße 40","tags":{"amenity":"restaurant","opening_hours":"Su-Th,PH 11:00-24:00, Fr,Sa 11:00-02:00"},"amenity":"restaurant"},{"id":"node-1915596915","name":"Li Myra","lat":52.4976828,"lng":13.354659,"address":"Maaßenstraße 11","tags":{"amenity":"restaurant","opening_hours":"11:30-24:00"},"amenity":"restaurant"},{"id":"node-1915596923","name":"Maxway Coffee","lat":52.4975547,"lng":13.3546662,"address":"Maaßenstraße 13","tags":{"amenity":"cafe","opening_hours":"Mo-Fr 07:00-20:00; Sa 09:00-20:00; Su 10:00-20:00"},"amenity":"cafe"},{"id":"node-1915666390","name":"Restaurant Graf","lat":52.4993449,"lng":13.3456981,"address":"Martin-Luther-Straße 8","tags":{"amenity":"restaurant"},"amenity":"restaurant"},{"id":"node-1915682808","name":"Neelou","lat":52.5008658,"lng":13.3540945,"address":"Karl-Heinrich-Ulrichs-Straße 8","tags":{"amenity":"restaurant"},"amenity":"restaurant"},{"id":"node-1927276405","name":"K6","lat":52.5005192,"lng":13.3503688,"address":"Kleiststraße 6","tags":{"amenity":"pub"},"amenity":"pub"},{"id":"node-1955496394","name":"Anno64","lat":52.4901689,"lng":13.4028527,"address":"Gneisenaustraße 64","tags":{"amenity":"pub","opening_hours":"Mo-Su 16:00-01:00"},"amenity":"pub"},{"id":"node-1969213797","name":"Billardaire","lat":52.489166,"lng":13.365328,"address":"Monumentenstraße 35","tags":{"amenity":"bar","opening_hours":"Mo-Fr 16:00-00:00, Sa-Su 14:00-00:00"},"amenity":"bar"},{"id":"node-1971713459","name":"Pandoras Kirchencafé","lat":52.4962467,"lng":13.3959314,"address":"Zossener Straße 65","tags":{"amenity":"cafe","opening_hours":"Su, We-Fr 15:00-21:00; Sa 15:00-20:00"},"amenity":"cafe"},{"id":"node-1972758243","name":"Gurman's Grillhaus","lat":52.4832239,"lng":13.3778739,"tags":{"amenity":"restaurant"},"amenity":"restaurant"},{"id":"node-1995200593","name":"Sarod's","lat":52.4878313,"lng":13.3946351,"address":"Friesenstraße 22","tags":{"amenity":"restaurant","opening_hours":"Tu-Su 15:00-23:00"},"amenity":"restaurant"},{"id":"node-2008618822","name":"aahaa","lat":52.5050713,"lng":13.3970883,"address":"Lindenstraße 29","tags":{"amenity":"restaurant","opening_hours":"Mo-Su 11:30-23:00"},"amenity":"restaurant"},{"id":"node-2008662462","name":"Vogt’s Bier-Express","lat":52.4935789,"lng":13.387729,"address":"Mehringdamm 32/34","tags":{"amenity":"pub"},"amenity":"pub"},{"id":"node-2026417804","name":"Schnittchen","lat":52.4970275,"lng":13.3849034,"tags":{"amenity":"restaurant"},"amenity":"restaurant"},{"id":"node-2026821137","name":"Backhaus","lat":52.4933094,"lng":13.3837152,"tags":{"opening_hours":"Mo-Su 06:00-16:00"}},{"id":"node-2026821148","name":"Casa Mia","lat":52.4928419,"lng":13.3864776,"address":"Yorckstraße 89A","tags":{"amenity":"restaurant"},"amenity":"restaurant"},{"id":"node-2026821149","name":"Alptraum","lat":52.4950452,"lng":13.3837733,"address":"Großbeerenstraße 23","tags":{"amenity":"pub","opening_hours":"Mo-Su 19:30-04:00"},"amenity":"pub"},{"id":"node-2027816117","name":"Little Saigon","lat":52.4967107,"lng":13.3857781,"address":"Obentrautstraße 32","tags":{"amenity":"restaurant","opening_hours":"Mo-Fr 11:30-22:00, Su 13:00-22:00"},"amenity":"restaurant"},{"id":"node-2028823935","name":"Cafe Mon Cherie","lat":52.4814946,"lng":13.3632289,"address":"Naumannstraße 48","tags":{"amenity":"cafe","opening_hours":"Mo-Sa 06:00-19:00; Su 07:00-19:00"},"amenity":"cafe"},{"id":"node-2032547421","name":"Mehlstübchen","lat":52.4838029,"lng":13.3612466,"address":"Leberstraße 28","tags":{"opening_hours":"Tu-Fr 07:00-18:00; Sa 08:00-14:00"}},{"id":"node-2038343429","name":"Café Journale","lat":52.5068334,"lng":13.3983221,"address":"Lindenstraße 37","tags":{"amenity":"restaurant","opening_hours":"Mo-Fr 10:30-01:00, Sa,Su 11:30-01:00; PH 11:30-01:00"},"amenity":"restaurant"},{"id":"node-2055163663","name":"Tresen-Treff","lat":52.488047,"lng":13.3367481,"address":"Berliner Straße 167","tags":{"amenity":"pub","opening_hours":"Tu-Th 12:00-23:00; Fr-Sa 12:00-03:00"},"amenity":"pub"},{"id":"node-2059988683","name":"Bonjour","lat":52.5068459,"lng":13.3946569,"address":"Markgrafenstraße 19","tags":{"opening_hours":"Mo-Fr 05:00-19:00; Sa 07:00-15:00"}},{"id":"node-2085088144","name":"Gaststätte Berlinicke Stuben","lat":52.466406,"lng":13.3776078,"tags":{"amenity":"bar","opening_hours":"Mo-Fr 12:00-18:00+, Sa,Su 13:00-18:00+; PH 13:00-18:00+"},"amenity":"bar"},{"id":"node-2088402744","name":"Wiener Feinbäcker Heberer","lat":52.502,"lng":13.3430121,"tags":{}},{"id":"node-2109017886","name":"Sissi","lat":52.4975164,"lng":13.3468297,"address":"Motzstraße 34","tags":{"amenity":"restaurant","opening_hours":"Mo-Su 17:00-00:00"},"amenity":"restaurant"},{"id":"node-2121663158","name":"Roca","lat":52.505405,"lng":13.3333868,"tags":{"amenity":"cafe","opening_hours":"12:00-21:00"},"amenity":"cafe"},{"id":"node-2126473947","name":"Castel Montecroce","lat":52.4859691,"lng":13.3942086,"address":"Friesenstraße 14","tags":{"amenity":"restaurant","opening_hours":"We-Su 17:00-23:00; Mo,Tu off"},"amenity":"restaurant"},{"id":"node-2126473948","name":"Goldfries","lat":52.4856879,"lng":13.3941757,"address":"Schwiebusser Straße 45","tags":{"amenity":"cafe","opening_hours":"Th-Mo 10:00-20:00"},"amenity":"cafe"},{"id":"node-2131992134","name":"Sorriso","lat":52.5038063,"lng":13.3478626,"address":"Kurfürstenstraße 76","tags":{"amenity":"restaurant","opening_hours":"Mo-Sa 12:00-24:00; Su 17:00-24:00"},"amenity":"restaurant"},{"id":"node-2141331441","name":"Miss Pho","lat":52.5026543,"lng":13.3369574,"address":"Marburger Straße 15","tags":{"amenity":"restaurant","opening_hours":"Mo-Fr 11:30-23:00; Sa, Su, PH 12:00-23:00"},"amenity":"restaurant"},{"id":"node-2141331446","name":"La Sepia","lat":52.5032948,"lng":13.337074,"address":"Marburger Straße 2","tags":{"amenity":"restaurant","opening_hours":"Mo-Sa 12:00-24:00"},"amenity":"restaurant"},{"id":"node-2141331447","name":"Little Green Rabbit","lat":52.5032596,"lng":13.3375593,"tags":{"amenity":"restaurant"},"amenity":"restaurant"},{"id":"node-2141331449","name":"Chicago Williams BBQ","lat":52.5029805,"lng":13.3372852,"address":"Marburger Straße 16","tags":{"amenity":"restaurant","opening_hours":"Mo-Sa 17:00-24:00"},"amenity":"restaurant"},{"id":"node-2141331450","name":"963","lat":52.5025596,"lng":13.3368618,"address":"Marburger Straße 14","tags":{"amenity":"restaurant","opening_hours":"PH,Mo-Su 17:00+"},"amenity":"restaurant"},{"id":"node-2141331451","name":"Cao Cao","lat":52.5031866,"lng":13.3369581,"address":"Marburger Straße 2","tags":{"amenity":"restaurant","opening_hours":"Mo-Sa 12:00-23:00, Su 15:00-23:00"},"amenity":"restaurant"},{"id":"node-2143425558","name":"Mokkabar","lat":52.4919617,"lng":13.3939307,"address":"Gneisenaustraße 93","tags":{"amenity":"cafe","opening_hours":"Mo-Su 09:00-01:00"},"amenity":"cafe"},{"id":"node-2143425559","name":"Mezban","lat":52.490399,"lng":13.4017054,"address":"Gneisenaustraße 69","tags":{"amenity":"restaurant","opening_hours":"Mo-Su 12:00-22:00"},"amenity":"restaurant"},{"id":"node-2176000703","name":"M&M Back","lat":52.4596602,"lng":13.3843325,"tags":{"opening_hours":"Mo-Fr 05:00-19:00; Sa 05:00-18:00; Su 06:00-18:00"}},{"id":"node-2176128667","name":"Cafe Kurve","lat":52.458605,"lng":13.3814251,"address":"Friedrich-Wilhelm-Straße 22","tags":{"amenity":"cafe","opening_hours":"Mo-Fr 11:30-17:00; Su 14:00-18:00"},"amenity":"cafe"},{"id":"node-2179684658","name":"Matzbach","lat":52.4892029,"lng":13.3954442,"tags":{"amenity":"restaurant"},"amenity":"restaurant"},{"id":"node-2181178538","name":"Kamps","lat":52.5065852,"lng":13.3906953,"tags":{}},{"id":"node-2181178563","name":"La Gino","lat":52.5068611,"lng":13.391003,"address":"Rudi-Dutschke-Straße 28","tags":{"amenity":"restaurant","opening_hours":"Mo-Su 11:00-24:00"},"amenity":"restaurant"},{"id":"node-2181178770","name":"Tim Raue","lat":52.506883,"lng":13.3913836,"address":"Rudi-Dutschke-Straße 26","tags":{"amenity":"restaurant","opening_hours":"We-Sa 12:00-13:00; Tu-Sa 19:00-21:00"},"amenity":"restaurant"},{"id":"node-2181178790","name":"The Barn","lat":52.5058194,"lng":13.3904613,"address":"Friedrichstraße 25","tags":{"amenity":"cafe","opening_hours":"Mo-Fr 08:00-18:00; Sa-Su 10:00-18:00"},"amenity":"cafe"},{"id":"node-2183841782","name":"Kaffee lieben wir","lat":52.5032118,"lng":13.3792996,"address":"Schöneberger Straße 9/10","tags":{"amenity":"cafe","opening_hours":"Mo-Fr 06:00-18:00; Sa,Su 08:00-18:00"},"amenity":"cafe"},{"id":"node-2183841788","name":"cafe (unbenannt)","lat":52.5050695,"lng":13.3858576,"tags":{"amenity":"cafe"},"amenity":"cafe"},{"id":"node-2185429617","name":"Golden Brown","lat":52.463697,"lng":13.3345964,"address":"Schönhauser Straße 1","tags":{"amenity":"restaurant","opening_hours":"Mo-Su 09:00-00:00"},"amenity":"restaurant"},{"id":"node-2188663985","name":"Johann","lat":52.4925265,"lng":13.3553305,"address":"Gleditschstraße 47","tags":{"opening_hours":"Tu-Th, Sa-Su 08:00-16:00; Fr 08:00-17:00"}},{"id":"node-2189329372","name":"Redo XXL Berlin","lat":52.4544822,"lng":13.3848564,"tags":{"amenity":"restaurant","opening_hours":"Mo-Su 12:00-22:00; Fr,Sa 12:00-24:00"},"amenity":"restaurant"},{"id":"node-2190105993","name":"Bar Italia","lat":52.4901725,"lng":13.3860728,"tags":{"amenity":"cafe","opening_hours":"Mo-Su,PH 08:00-18:00"},"amenity":"cafe"},{"id":"node-2190106010","name":"Ristorante Primavera","lat":52.4901678,"lng":13.3859053,"address":"Mehringdamm 72","tags":{"amenity":"restaurant","opening_hours":"Mo-Su 11:30-24:00"},"amenity":"restaurant"},{"id":"node-2190106059","name":"cocoro","lat":52.4908712,"lng":13.3864006,"address":"Mehringdamm 64","tags":{"amenity":"restaurant","opening_hours":"Mo-Su,PH 12:00-22:00"},"amenity":"restaurant"},{"id":"node-2190106061","name":"Steinecke","lat":52.4911697,"lng":13.3864998,"tags":{"opening_hours":"Mo-Fr 06:30-19:00; Sa 07:00-17:00; Su 07:00-13:00"}},{"id":"node-2197789273","name":"Bierhaus Tempelhof","lat":52.4667941,"lng":13.385955,"address":"Tempelhofer Damm 139","tags":{"amenity":"pub","opening_hours":"Mo-Sa 12:00-01:00+, Su 12:00-24:00"},"amenity":"pub"},{"id":"node-2245836213","name":"Turandot","lat":52.4894903,"lng":13.3922155,"tags":{"amenity":"pub"},"amenity":"pub"},{"id":"node-2266759360","name":"Abirams","lat":52.4922322,"lng":13.3944295,"address":"Zossener Straße 12","tags":{"amenity":"restaurant","opening_hours":"Mo-Su 11:30-23:00"},"amenity":"restaurant"},{"id":"node-2272817595","name":"Vereins-Eck 67","lat":52.4585332,"lng":13.3784434,"tags":{"amenity":"pub"},"amenity":"pub"},{"id":"node-2272817899","name":"Blumenthal-Eck","lat":52.459772,"lng":13.3813757,"tags":{"amenity":"pub","opening_hours":"Mo-Su 11:30-24:00"},"amenity":"pub"},{"id":"node-2272819038","name":"Bose-Eck","lat":52.4627447,"lng":13.377428,"tags":{"amenity":"pub"},"amenity":"pub"},{"id":"node-2285494280","name":"Fräulein Frost","lat":52.4818183,"lng":13.3798649,"address":"Manfred-von-Richthofen-Straße 29","tags":{"amenity":"cafe","opening_hours":"Mo-Su 13:00-19:00"},"amenity":"cafe"},{"id":"node-2287270716","name":"Café ParkGenuss","lat":52.4959199,"lng":13.3733975,"tags":{"amenity":"cafe","opening_hours":"Mo-Th 11:00-16:00; Fr-Su 11:00-17:00"},"amenity":"cafe"},{"id":"node-2315817603","name":"Café Friedberg","lat":52.4886291,"lng":13.4011481,"address":"Bergmannstraße 42","tags":{"amenity":"cafe","opening_hours":"Tu-Su 10:00-17:00"},"amenity":"cafe"},{"id":"node-2320709661","name":"Café Pink","lat":52.4927363,"lng":13.3532929,"address":"Goltzstraße 40","tags":{"amenity":"cafe","opening_hours":"Mo-Th 14:00-19:00"},"amenity":"cafe"},{"id":"node-2329589241","name":"Café Eule","lat":52.4977522,"lng":13.3693839,"address":"Bülowstraße 69a","tags":{"amenity":"cafe","opening_hours":"Mo-Fr 10:00-19:00; Sa, Su 09:30-20:00"},"amenity":"cafe"},{"id":"node-2352388741","name":"G wie Goulasch","lat":52.4885454,"lng":13.3906115,"address":"Chamissoplatz 2","tags":{"amenity":"restaurant","opening_hours":"Tu-Sa 18:00+"},"amenity":"restaurant"},{"id":"node-2354851620","name":"Café Schönhaus","lat":52.4598553,"lng":13.335147,"address":"Schönhauser Straße 11","tags":{}},{"id":"node-2361562301","name":"Jayden","lat":52.484188,"lng":13.3840442,"address":"Manfred-von-Richthofen-Straße 6","tags":{"amenity":"restaurant","opening_hours":"Mo-Th 11:00-22:00; Fr-Sa 11:00-22:30; Su 11:30-22:00"},"amenity":"restaurant"},{"id":"node-2361562329","name":"Tchibo","lat":52.4839474,"lng":13.3835102,"address":"Manfred-von-Richthofen-Straße 10","tags":{"opening_hours":"Mo-Fr 09:00-18:30; Sa 09:00-14:00"}},{"id":"node-2367435171","name":"Café Paresüd","lat":52.4599153,"lng":13.3582043,"address":"Prellerweg 47-49","tags":{"amenity":"cafe","opening_hours":"Apr-Oct: Sa, Su, PH 11:00-18:00"},"amenity":"cafe"},{"id":"node-2389202473","name":"The Luftbrücke","lat":52.4831206,"lng":13.3817459,"address":"Manfred-von-Richthofen-Straße 18","tags":{"amenity":"restaurant","opening_hours":"Tu 11:30-16:00; We-Fr 11:30-22:00"},"amenity":"restaurant"},{"id":"node-2390676537","name":"Raststätte Gnadenbrot","lat":52.4971931,"lng":13.3457531,"address":"Martin-Luther-Straße 20a","tags":{"amenity":"restaurant","opening_hours":"Mo-Sa,PH 14:00-01:00, Su 14:00-24:00"},"amenity":"restaurant"},{"id":"node-2398308917","name":"Cafe minouche","lat":52.5064511,"lng":13.3437959,"address":"Budapester Straße 6","tags":{"amenity":"cafe","opening_hours":"Mo-Fr 08:00-18:00; Sa 09:30-18:00"},"amenity":"cafe"},{"id":"node-2409135234","name":"Café Traum","lat":52.4758569,"lng":13.3402464,"address":"Hauptstraße 69","tags":{"amenity":"cafe"},"amenity":"cafe"},{"id":"node-2409187394","name":"LuLa am Markt","lat":52.4721187,"lng":13.3350396,"address":"Lauterstraße 14-15","tags":{"amenity":"cafe","opening_hours":"Mo-Su 08:30-20:00"},"amenity":"cafe"},{"id":"node-2424605187","name":"Swadishta","lat":52.5044862,"lng":13.3572887,"address":"Lützowstraße 69","tags":{"amenity":"restaurant","opening_hours":"Su-Th 12:00-22:00; Fr-Sa 12:00-23:00"},"amenity":"restaurant"},{"id":"node-2425321862","name":"Kantine Arbeitsgericht \"Cantina Lubitsch\"","lat":52.5025949,"lng":13.3592244,"address":"Genthiner Str. 41","tags":{"amenity":"restaurant","opening_hours":"Mo-Fr 10:00-16:00; PH off"},"amenity":"restaurant"},{"id":"node-2425325323","name":"Kantine WZB","lat":52.5066682,"lng":13.3654092,"address":"Reichpietschufer 50","tags":{"amenity":"restaurant","opening_hours":"Mo-Fr 13:00-15:30 \"öffentlich\", Mo-Fr 07:30-15:30 \"staff\""},"amenity":"restaurant"},{"id":"node-2451154239","name":"Jonas","lat":52.4863418,"lng":13.3636771,"address":"Naumannstraße 1","tags":{"amenity":"pub","opening_hours":"Mo-Su 11:00-18:00+"},"amenity":"pub"},{"id":"node-2454290041","name":"Sully","lat":52.485329,"lng":13.3613164,"address":"Leberstraße 8","tags":{"amenity":"cafe","opening_hours":"Fr,Sa 10:00-22:30; Su 10:00-21:00; Tu-Th 16:30-22:30"},"amenity":"cafe"},{"id":"node-2455728690","name":"Erx Lounge","lat":52.480489,"lng":13.3485076,"address":"Fritz-Reuter-Straße 9","tags":{"amenity":"pub","opening_hours":"Mo-Su 16:00-24:00"},"amenity":"pub"},{"id":"node-2455728704","name":"L'Antica Pizzeria Da Michele","lat":52.4802394,"lng":13.3474886,"address":"Fritz-Reuter-Straße 7","tags":{"amenity":"restaurant","opening_hours":"Mo-Sa 17:00-22:30; Su 14:00-22:30"},"amenity":"restaurant"},{"id":"node-2476315800","name":"KannVa","lat":52.4788366,"lng":13.3325366,"address":"Wexstraße 23","tags":{"amenity":"cafe"},"amenity":"cafe"},{"id":"node-2476315801","name":"Sagar","lat":52.4789501,"lng":13.333047,"address":"Prinzregentenstraße 53","tags":{"amenity":"restaurant","opening_hours":"Mo-Su 11:30-22:00"},"amenity":"restaurant"},{"id":"node-2476315802","name":"Yakamoz","lat":52.478892,"lng":13.3330577,"address":"Prinzregentenstraße 53","tags":{"amenity":"restaurant","opening_hours":"Tu-Fr 13:00-23:00; Sa,Su 13:00-24:00"},"amenity":"restaurant"},{"id":"node-2476698389","name":"Beach 61","lat":52.4966705,"lng":13.3711719,"tags":{"amenity":"cafe"},"amenity":"cafe"},{"id":"node-2495554363","name":"Arcanoa","lat":52.4880065,"lng":13.3868088,"address":"Am Tempelhofer Berg 8","tags":{"amenity":"pub","opening_hours":"Mo,We-Sa 20:00-03:00"},"amenity":"pub"},{"id":"node-2495554364","name":"Barbie Bar","lat":52.4894745,"lng":13.3867705,"address":"Mehringdamm 77","tags":{"amenity":"bar","opening_hours":"We,Th 18:00-24:00, Fr,Sa 18:00-01:00"},"amenity":"bar"},{"id":"node-2495554368","name":"Nostrano Cucina","lat":52.4891195,"lng":13.39017,"address":"Nostitzstraße 33","tags":{"amenity":"restaurant","opening_hours":"Tu-Fr 15:00-23:00; Sa-So 12:00-22:00"},"amenity":"restaurant"},{"id":"node-2495554369","name":"Späti Café","lat":52.4872843,"lng":13.39423,"tags":{"amenity":"cafe"},"amenity":"cafe"},{"id":"node-2495554382","name":"Mandingo-Diskothek","lat":52.4871284,"lng":13.3864809,"address":"Mehringdamm 107","tags":{"amenity":"bar","opening_hours":"Mo 00:00-00:00, Tu-Th 17:00-24:00, Fr,Sa 22:00-06:00, Su 22:00-24:00"},"amenity":"bar"},{"id":"node-2495554399","name":"Z","lat":52.4866608,"lng":13.394212,"address":"Friesenstraße 12","tags":{"amenity":"restaurant","opening_hours":"Tu-Su 17:00-00:00"},"amenity":"restaurant"},{"id":"node-2495554575","name":"Heidelberger Krug","lat":52.4886356,"lng":13.3918258,"address":"Arndtstraße 15","tags":{"amenity":"pub","opening_hours":"Mo-Sa 17:00-02:00, Su 17:00-01:00"},"amenity":"pub"},{"id":"node-2495554581","name":"Milagro","lat":52.4894025,"lng":13.3908162,"address":"Bergmannstraße 12","tags":{"amenity":"restaurant","opening_hours":"Mo-Fr 10:00-01:00, Sa-Su 10:00-00:00"},"amenity":"restaurant"},{"id":"node-2495554582","name":"Frau Behrens Torten","lat":52.4897974,"lng":13.3879172,"tags":{"amenity":"cafe","opening_hours":"Mo-Su 11:00-19:00"},"amenity":"cafe"},{"id":"node-2495556406","name":"Marameo","lat":52.4881298,"lng":13.3917754,"address":"Chamissoplatz 7","tags":{"amenity":"cafe","opening_hours":"Th,Fr 10:30-18:00; Sa 10:00-18:00; Su 12:00-18:00"},"amenity":"cafe"},{"id":"node-2495675254","name":"Conni Island","lat":52.4884663,"lng":13.3972032,"address":"Heimstraße 24","tags":{"amenity":"cafe","opening_hours":"Fr-Su 12:00-18:00"},"amenity":"cafe"},{"id":"node-2496059352","name":"Sponholz","lat":52.4753057,"lng":13.3402823,"address":"Hauptstraße 89","tags":{"amenity":"pub","opening_hours":"Su-Th 17:00-00:00; Fr,Sa 17:00-02:00"},"amenity":"pub"},{"id":"node-2496651173","name":"Cancún","lat":52.4919484,"lng":13.3876337,"address":"Mehringdamm 45","tags":{"amenity":"restaurant"},"amenity":"restaurant"},{"id":"node-2496651175","name":"Atlantic","lat":52.4898238,"lng":13.3899477,"address":"Bergmannstraße 100","tags":{"amenity":"pub","opening_hours":"Mo-Su 09:00-23:55"},"amenity":"pub"},{"id":"node-2496651176","name":"Suspiria","lat":52.4900059,"lng":13.3889535,"address":"Bergmannstraße 104","tags":{"amenity":"bar"},"amenity":"bar"},{"id":"node-2496651180","name":"Canteen","lat":52.4900967,"lng":13.3884093,"address":"Bergmannstraße 3","tags":{"amenity":"cafe"},"amenity":"cafe"},{"id":"node-2496651182","name":"Chandra Kumari","lat":52.4923508,"lng":13.3888295,"address":"Gneisenaustraße 4","tags":{"amenity":"restaurant","opening_hours":"12:00-25:00"},"amenity":"restaurant"},{"id":"node-2496651187","name":"Destille","lat":52.4903858,"lng":13.3870441,"address":"Mehringdamm 67","tags":{"amenity":"pub","opening_hours":"Mo-Sa 15:00-05:00, Su 15:00-02:00"},"amenity":"pub"},{"id":"node-2496651195","name":"Einstein Kaffee","lat":52.4900418,"lng":13.3887714,"address":"Bergmannstraße 105","tags":{"amenity":"cafe","opening_hours":"Mo-Fr 08:00-19:00; Sa 08:30-19:00; Su 10:00-19:00"},"amenity":"cafe"},{"id":"node-2496651313","name":"Bang Bang Handpulled Noodles","lat":52.4916312,"lng":13.387538,"address":"Mehringdamm 51","tags":{"amenity":"restaurant"},"amenity":"restaurant"},{"id":"node-2496651327","name":"Café Sarotti Höfe","lat":52.4911669,"lng":13.3873422,"address":"Mehringdamm 57","tags":{"amenity":"cafe"},"amenity":"cafe"},{"id":"node-2496651328","name":"India","lat":52.4898475,"lng":13.3897699,"address":"Bergmannstraße 100","tags":{"amenity":"restaurant","opening_hours":"Mo-Su 12:00-00:00"},"amenity":"restaurant"},{"id":"node-2496651336","name":"Little Tibet","lat":52.4922341,"lng":13.3895361,"address":"Gneisenaustraße 6a","tags":{"amenity":"restaurant","opening_hours":"Tu-Fr 17:00-23:30; Sa 14:00-23:30; Su 14:00-22:00"},"amenity":"restaurant"},{"id":"node-2496651337","name":"Madang","lat":52.4921169,"lng":13.3901228,"address":"Gneisenaustraße 8","tags":{"amenity":"restaurant","opening_hours":"Mo-Sa 17:30-23:30"},"amenity":"restaurant"},{"id":"node-2496651338","name":"Melitta Sundström","lat":52.490789,"lng":13.3871797,"address":"Mehringdamm 61","tags":{"amenity":"cafe","opening_hours":"Su,Tu-Th 17:00-02:00, Fr,Sa 17:00-03:30"},"amenity":"cafe"},{"id":"node-2496651339","name":"Nepal Haus","lat":52.4923727,"lng":13.3887015,"tags":{"amenity":"restaurant"},"amenity":"restaurant"},{"id":"node-2496651341","name":"Espressolounge","lat":52.4904706,"lng":13.3870665,"address":"Mehringdamm 67","tags":{"amenity":"cafe","opening_hours":"Mo-Fr 07:30-19:00; Sa 08:00-19:00; Su,PH 09:00-19:00"},"amenity":"cafe"},{"id":"node-2496652033","name":"Flemming's","lat":52.4905335,"lng":13.3870949,"address":"Mehringdamm 65","tags":{"amenity":"restaurant","opening_hours":"Tu-Fr 11:00-21:30; Sa,Su 12:00-22:00"},"amenity":"restaurant"},{"id":"node-2496652039","name":"Swera","lat":52.4899201,"lng":13.3890977,"address":"Bergmannstraße 103","tags":{"amenity":"restaurant","opening_hours":"Fr-Sa 10:30-02:00; Su-Th 10:30-00:00"},"amenity":"restaurant"},{"id":"node-2496752195","name":"Hương Quê","lat":52.4896456,"lng":13.3912396,"address":"Bergmannstraße 96","tags":{"amenity":"restaurant","opening_hours":"Mo-Su 11:30-23:30"},"amenity":"restaurant"},{"id":"node-2496752200","name":"Umami","lat":52.4896558,"lng":13.3910105,"address":"Bergmannstraße","tags":{"amenity":"restaurant"},"amenity":"restaurant"},{"id":"node-2496752204","name":"Fräulein nimmersatt","lat":52.4896112,"lng":13.3915288,"address":"Bergmannstraße 95","tags":{"amenity":"cafe"},"amenity":"cafe"},{"id":"node-2496789927","name":"SongSong Kitchen","lat":52.49067,"lng":13.3939518,"address":"Zossener Straße 19","tags":{"amenity":"restaurant","opening_hours":"Su-Fr 12:00-22:00"},"amenity":"restaurant"},{"id":"node-2499357891","name":"Attila","lat":52.458269,"lng":13.3738177,"tags":{"amenity":"restaurant","opening_hours":"Mo-Th,Su 11:30-22:00; Fr-Sa 11:30-23:00"},"amenity":"restaurant"},{"id":"node-2501081509","name":"The visit","lat":52.5023302,"lng":13.3382153,"address":"Nürnberger Straße 17","tags":{"amenity":"cafe"},"amenity":"cafe"},{"id":"node-2512387154","name":"Steinecke","lat":52.468588,"lng":13.369827,"address":"Alboinstraße 18","tags":{"opening_hours":"Mo-Th 07:00-20:00; Fr 07:00-21:00; Sa 08:00-21:00"}},{"id":"node-2517230830","name":"Viet Bowl","lat":52.5067633,"lng":13.3723427,"address":"Marlene-Dietrich-Platz 1","tags":{"amenity":"restaurant","opening_hours":"Mo-Su 11:00-23:00"},"amenity":"restaurant"},{"id":"node-2522233428","name":"Hofpfisterei","lat":52.4839731,"lng":13.3835702,"address":"Manfred-von-Richthofen-Straße 10","tags":{"opening_hours":"Mo-Fr 08:00-18:00; Sa 07:30-13:30"}},{"id":"node-2539491540","name":"Café Samsun","lat":52.4927635,"lng":13.3816598,"tags":{"amenity":"pub"},"amenity":"pub"},{"id":"node-2543036913","name":"Palladin Kochschule","lat":52.4946833,"lng":13.356437,"address":"Pallasstraße 14","tags":{"amenity":"restaurant","opening_hours":"Mo-Fr 09:00-15:00"},"amenity":"restaurant"},{"id":"node-2549455657","name":"Tutti Island","lat":52.4909319,"lng":13.3940433,"address":"Zossener Straße 17","tags":{"amenity":"restaurant","opening_hours":"Mo-Su 11:00-23:00"},"amenity":"restaurant"},{"id":"node-2552449932","name":"Pallas Back-Snack & Bistro","lat":52.4946637,"lng":13.3566501,"tags":{"amenity":"cafe"},"amenity":"cafe"},{"id":"node-2552461548","name":"Pascha Grill","lat":52.4946174,"lng":13.3607931,"address":"Potsdamer Straße 172","tags":{"amenity":"restaurant","opening_hours":"24/7"},"amenity":"restaurant"},{"id":"node-2575029355","name":"Café Kreuzzwerg","lat":52.4937361,"lng":13.3817731,"address":"Hornstraße 23","tags":{"amenity":"cafe","opening_hours":"Tu-Th 14:00-18:00; Fr-Mo 10:00-18:00"},"amenity":"cafe"},{"id":"node-2587344133","name":"Cafe Barman","lat":52.5020743,"lng":13.3492123,"address":"An der Urania 5","tags":{"amenity":"bar"},"amenity":"bar"},{"id":"node-2598153634","name":"Surprise Club","lat":52.5034016,"lng":13.3656474,"address":"Potsdamer Straße 84","tags":{"amenity":"bar","opening_hours":"Fr-Sa 22:00-06:00"},"amenity":"bar"},{"id":"node-2628596238","name":"Chapter One","lat":52.4898185,"lng":13.3958112,"address":"Mittenwalder Straße 30","tags":{"amenity":"cafe","opening_hours":"Mo-Sa 09:00-18:00; Su 10:00-18:00"},"amenity":"cafe"},{"id":"node-2629230085","name":"Ellys Back & Cafe","lat":52.4981986,"lng":13.3853029,"tags":{}},{"id":"node-2633828235","name":"Weinverein am Berg","lat":52.4871836,"lng":13.389101,"address":"Fidicinstraße 38","tags":{"amenity":"bar","opening_hours":"Mo-Th 17:00-24:00; Fr,Sa 17:00-02:00"},"amenity":"bar"},{"id":"node-2634883659","name":"EspressoBar","lat":52.5021268,"lng":13.3457005,"address":"Keithstraße 5","tags":{"amenity":"cafe","opening_hours":"Mo-Fr 07:30-16:00"},"amenity":"cafe"},{"id":"node-2634887161","name":"brotzeit","lat":52.5003754,"lng":13.3511239,"tags":{"amenity":"cafe","opening_hours":"6:00-20:00"},"amenity":"cafe"},{"id":"node-2642733630","name":"Ri Trovo","lat":52.481022,"lng":13.3447358,"address":"Martin-Luther-Straße 120","tags":{"amenity":"restaurant","opening_hours":"Tu-Su 16:00-23:00; Mo off"},"amenity":"restaurant"},{"id":"node-2676736128","name":"Schurke","lat":52.4933515,"lng":13.3814005,"address":"Yorckstraße 17","tags":{"amenity":"pub","opening_hours":"Mo-Sa 19:30+"},"amenity":"pub"},{"id":"node-2680092180","name":"Schnell","lat":52.5027462,"lng":13.3440431,"tags":{"opening_hours":"Mo-Sa 07:00-18:00"}},{"id":"node-2686158208","name":"Back & Cafe Flott","lat":52.5019493,"lng":13.3713448,"tags":{"amenity":"restaurant"},"amenity":"restaurant"},{"id":"node-2686906057","name":"Rosa Mexicana","lat":52.4859215,"lng":13.3383897,"address":"Meraner Straße 20B","tags":{"amenity":"restaurant"},"amenity":"restaurant"},{"id":"node-2690960245","name":"Uppers","lat":52.4933909,"lng":13.3867428,"tags":{"amenity":"cafe"},"amenity":"cafe"},{"id":"node-2722760427","name":"Tierra Colombiana","lat":52.4901822,"lng":13.3959157,"address":"Mittenwalder Straße 27","tags":{"amenity":"restaurant","opening_hours":"Mo-Tu off; We-Fr 18:00-22:00; Sa 15:00-22:00; Su 13:00-20:00"},"amenity":"restaurant"},{"id":"node-2722768975","name":"Mehlwurm","lat":52.4892096,"lng":13.3950268,"address":"Marheinekeplatz 15","tags":{"opening_hours":"Mo-Sa 08:00-18:00"}},{"id":"node-2726147775","name":"vanille & marille Eismanufaktur","lat":52.4585977,"lng":13.3813245,"address":"Friedrich-Wilhelm-Straße 22","tags":{"amenity":"ice_cream","opening_hours":"Mar-Oct Mo-Su 12:00-20:00"},"amenity":"ice_cream"},{"id":"node-2727229961","name":"Monkey Bar","lat":52.5056642,"lng":13.3376934,"address":"Budapester Straße 40","tags":{"amenity":"bar"},"amenity":"bar"},{"id":"node-2734481331","name":"Ripieno","lat":52.4876481,"lng":13.3737245,"tags":{"amenity":"restaurant","opening_hours":"Mo-Su 12:00-21:30; We off"},"amenity":"restaurant"},{"id":"node-2739097086","name":"Zyankalibar","lat":52.4915715,"lng":13.392825,"address":"Gneisenaustraße 17","tags":{"amenity":"bar","opening_hours":"Su-Th 16:00-24:00, Fr,Sa 16:00-02:00"},"amenity":"bar"},{"id":"node-2739098725","name":"Junction Bar","lat":52.491493,"lng":13.3932513,"tags":{"amenity":"bar"},"amenity":"bar"},{"id":"node-2744618507","name":"Good Morning Vietnam","lat":52.4902,"lng":13.389238,"address":"Bergmannstraße 102","tags":{"amenity":"restaurant","opening_hours":"Mo-Su 12:00-23:00"},"amenity":"restaurant"},{"id":"node-2756324152","name":"Berlinchen","lat":52.5036605,"lng":13.3445085,"address":"Bayreuther Straße 44","tags":{"amenity":"restaurant","opening_hours":"Mo-Sa 17:00-22:00"},"amenity":"restaurant"},{"id":"node-2769572074","name":"Linh yu!","lat":52.5060388,"lng":13.3800036,"address":"Stresemannstraße 105","tags":{"amenity":"restaurant","opening_hours":"Mo-Fr 11:30-22:00; Su 13:00-22:00"},"amenity":"restaurant"},{"id":"node-2776999566","name":"Neni Berlin","lat":52.5056232,"lng":13.3382017,"address":"Budapester Straße 40","tags":{"amenity":"restaurant","opening_hours":"Mo-Fr 12:00-00:00; Sa-Su 12:30-00:00"},"amenity":"restaurant"},{"id":"node-2777010889","name":"Irish Pub","lat":52.5044014,"lng":13.3380498,"address":"Tauentzienstraße 9-12","tags":{"amenity":"pub"},"amenity":"pub"},{"id":"node-2810964801","name":"Ulrichs","lat":52.501829,"lng":13.3529959,"address":"Karl-Heinrich-Ulrichs-Straße 11","tags":{"amenity":"restaurant","opening_hours":"Tu-Th 14:00-18:00"},"amenity":"restaurant"},{"id":"node-2823404643","name":"Tianfuzius","lat":52.4959209,"lng":13.3404775,"address":"Regensburger Straße 1","tags":{"amenity":"restaurant","opening_hours":"Tu-Fr 12:00-15:30, 17:30-23:00; Sa-Su 12:00-23:00"},"amenity":"restaurant"},{"id":"node-2830322394","name":"Zum goldenen Handwerk","lat":52.4967894,"lng":13.3852031,"address":"Obentrautstraße 36","tags":{"amenity":"bar","opening_hours":"Mo,Tu 15:00-24:00+, We-Sa 15:00-02:00, Su,PH 17:00-22:00+"},"amenity":"bar"},{"id":"node-2837335509","name":"Café Mom & Son","lat":52.5048459,"lng":13.3570157,"address":"Lützowstraße 44","tags":{"amenity":"cafe","opening_hours":"Mo-Fr 07:00-16:00"},"amenity":"cafe"},{"id":"node-2839222180","name":"Bobbe","lat":52.4933428,"lng":13.3343405,"address":"Motzstraße 91","tags":{"amenity":"restaurant","opening_hours":"Sa-Th 17:30-22:00"},"amenity":"restaurant"},{"id":"node-2841527485","name":"Arrey","lat":52.4644869,"lng":13.3858349,"tags":{}},{"id":"node-2841527486","name":"Cafe Miro","lat":52.4646563,"lng":13.3858412,"tags":{"amenity":"cafe"},"amenity":"cafe"},{"id":"node-2841527494","name":"M & M Back","lat":52.465067,"lng":13.385345,"tags":{}},{"id":"node-2844631419","name":"Café Alt-Tempelhof","lat":52.4655683,"lng":13.3846894,"address":"Alt-Tempelhof 23-25","tags":{"amenity":"cafe","opening_hours":"Mo-Fr 06:00-18:00; Sa 07:00-16:00; Su 08:00-17:00"},"amenity":"cafe"},{"id":"node-2847667701","name":"Kaffee Bohne","lat":52.4633342,"lng":13.3444078,"address":"Rubensstraße 122","tags":{"amenity":"cafe","opening_hours":"Mo-Fr 07:00-18:00; Sa-Su 10:00-18:00"},"amenity":"cafe"},{"id":"node-2861742278","name":"Café im Wasserturm","lat":52.4812913,"lng":13.3563055,"address":"Torgauer Straße 12-15","tags":{"amenity":"restaurant","opening_hours":"Mo-Fr 08:00-16:00"},"amenity":"restaurant"},{"id":"node-2874368637","name":"Mido XBerg","lat":52.4894382,"lng":13.3967172,"address":"Marheinekeplatz 3-4","tags":{"amenity":"restaurant","opening_hours":"Mo-Su 12:00-24:00"},"amenity":"restaurant"},{"id":"node-2874570616","name":"solar","lat":52.5043141,"lng":13.3836872,"address":"Stresemannstraße 76","tags":{"amenity":"bar","opening_hours":"Su-Th 18:00-01:00, Fr-Sa 18:00-02:00"},"amenity":"bar"},{"id":"node-2877333988","name":"Faelt","lat":52.4891766,"lng":13.3548466,"address":"Vorbergstraße 10a","tags":{"amenity":"restaurant"},"amenity":"restaurant"},{"id":"node-2925991701","name":"Tadım Ocakbaşı Restorant","lat":52.4930013,"lng":13.3950033,"address":"Zossener Straße 46","tags":{"amenity":"restaurant","opening_hours":"Mo off"},"amenity":"restaurant"},{"id":"node-2935272934","name":"Kamiko","lat":52.4893372,"lng":13.3931813,"address":"Bergmannstraße 89","tags":{"amenity":"restaurant","opening_hours":"Su-Th 12:00-23:00; Fr,Sa 12:00-24:00"},"amenity":"restaurant"},{"id":"node-2935319802","name":"Namsan","lat":52.4883702,"lng":13.3905756,"address":"Chamissoplatz 1","tags":{"amenity":"restaurant","opening_hours":"We-Su 17:30-22:30"},"amenity":"restaurant"},{"id":"node-2957867394","name":"Amera","lat":52.4672151,"lng":13.3825063,"address":"Borussiastraße 62","tags":{"amenity":"restaurant","opening_hours":"12:00-24:00"},"amenity":"restaurant"},{"id":"node-2967425430","name":"Bamboo Bay","lat":52.4825313,"lng":13.3571194,"address":"Torgauer Straße 12 - 15","tags":{"amenity":"restaurant","opening_hours":"Mo-Fr 11:00-15:00"},"amenity":"restaurant"},{"id":"node-2989979543","name":"Mabuhay","lat":52.5042493,"lng":13.3761523,"address":"Köthener Straße 28","tags":{"amenity":"restaurant","opening_hours":"Mo-Fr 11:30-15:30, 17:00-21:00"},"amenity":"restaurant"},{"id":"node-3030406979","name":"Viet Rice","lat":52.4854056,"lng":13.3453381,"address":"Martin-Luther-Straße 99","tags":{"amenity":"restaurant","opening_hours":"Mo-Fr 11:30-22:00; Sa,Su 12:00-22:00"},"amenity":"restaurant"},{"id":"node-3031539872","name":"ufaBäckerei","lat":52.4538569,"lng":13.3825408,"tags":{"opening_hours":"Mo-Fr 10:00-18:00"}},{"id":"node-3033373877","name":"Güneş Bäckerei","lat":52.4560063,"lng":13.3783155,"tags":{}},{"id":"node-3036788460","name":"Back 49","lat":52.4986242,"lng":13.3828907,"tags":{}},{"id":"node-3039087364","name":"La Sardegna","lat":52.5065367,"lng":13.3463168,"address":"Budapester Straße 11","tags":{"amenity":"restaurant"},"amenity":"restaurant"},{"id":"node-3047207560","name":"Early Birds Café & Bäckerei","lat":52.4907054,"lng":13.4008823,"tags":{"amenity":"cafe","opening_hours":"Mo-Fr 06:00-17:00"},"amenity":"cafe"},{"id":"node-3050011428","name":"Long","lat":52.4577162,"lng":13.3843517,"address":"Tempelhofer Damm 205","tags":{"amenity":"restaurant","opening_hours":"Mo-Sa 11:30-23:00; Su 12:00-23:00"},"amenity":"restaurant"},{"id":"node-3051026272","name":"Meyman","lat":52.4583273,"lng":13.3845432,"address":"Tempelhofer Damm 201","tags":{"amenity":"restaurant","opening_hours":"Mo-Su 08:00-22:00"},"amenity":"restaurant"},{"id":"node-3051044948","name":"Pausini","lat":52.4592426,"lng":13.3837179,"address":"Kaiserin-Augusta-Straße 78","tags":{"amenity":"cafe","opening_hours":"Mo-Fr 08:02-19:03; Sa 10:01-18:02; Su 11:02-18:02"},"amenity":"cafe"},{"id":"node-3061480423","name":"Coffee Corner","lat":52.501015,"lng":13.3916123,"tags":{"amenity":"cafe","opening_hours":"Mo-Fr 05:30-16:30; Sa 06:00-16:00; Su 07:00-15:00"},"amenity":"cafe"},{"id":"node-3064733044","name":"meyan","lat":52.4937732,"lng":13.3535589,"address":"Goltzstraße 36","tags":{"amenity":"cafe","opening_hours":"Tu-Th,Su,PH 09:30-17:00; Fr,Sa 09:30-22:00; Mo off"},"amenity":"cafe"},{"id":"node-3072343533","name":"60 Grad","lat":52.4896704,"lng":13.3370125,"address":"Stübbenstraße 8","tags":{"amenity":"cafe"},"amenity":"cafe"},{"id":"node-3072343633","name":"Baguette, Croissant & Co.","lat":52.4941974,"lng":13.3378375,"address":"Hohenstaufenstraße 39","tags":{"opening_hours":"Mo-Fr 06:30-15:30; Sa 07:30-15:00; Su 08:00-13:00"}},{"id":"node-3072343634","name":"Pho12","lat":52.4891814,"lng":13.3406406,"address":"Bayerischer Platz 12","tags":{"amenity":"restaurant","opening_hours":"Mo-Sa 11:30-22:00; Su 12:00-22:00"},"amenity":"restaurant"},{"id":"node-3072343733","name":"Ebe Ano","lat":52.494015,"lng":13.3374765,"address":"Bamberger Straße 49","tags":{"amenity":"restaurant","opening_hours":"Tu-Su 16:00-22:00"},"amenity":"restaurant"},{"id":"node-3072345336","name":"Patisserie & Café Lézard","lat":52.4941796,"lng":13.3375423,"address":"Bamberger Straße 49","tags":{"amenity":"cafe","opening_hours":"11:00-20:00"},"amenity":"cafe"},{"id":"node-3072346935","name":"Lon-Men","lat":52.488575,"lng":13.3366833,"address":"Bamberger Straße 30","tags":{"amenity":"restaurant","opening_hours":"12:00-22:30"},"amenity":"restaurant"},{"id":"node-3072942233","name":"Brotgut Backstube & Café","lat":52.4905727,"lng":13.3689997,"address":"Hochkirchstraße 10","tags":{"opening_hours":"Mo-Fr 06:30-18:30; Sa 06:30-13:00"}},{"id":"node-3072942333","name":"Cafe Aroma","lat":52.4900421,"lng":13.3693719,"address":"Hochkirchstraße 8","tags":{"amenity":"restaurant","opening_hours":"Mo-Su 11:00-23:00"},"amenity":"restaurant"},{"id":"node-3073205136","name":"Munch’s Hus","lat":52.4965192,"lng":13.3670548,"address":"Bülowstraße 66","tags":{"amenity":"restaurant","opening_hours":"Tu-Sa 16:00+; Mo,Su off"},"amenity":"restaurant"},{"id":"node-3073799795","name":"The Cafe","lat":52.4898115,"lng":13.3801328,"address":"Kreuzbergstraße 23","tags":{"opening_hours":"Mo-Fr 07:30-18:00; Sa-Su 08:00-18:00"}},{"id":"node-3079807640","name":"Maria","lat":52.4878185,"lng":13.3313451,"address":"Bundesallee 181","tags":{"amenity":"restaurant"},"amenity":"restaurant"},{"id":"node-3079809539","name":"Maria","lat":52.4911897,"lng":13.3312448,"tags":{"amenity":"restaurant","opening_hours":"Mo-Su 11:30-16:00,17:30-22:00"},"amenity":"restaurant"},{"id":"node-3079810234","name":"Kia Chi","lat":52.4911172,"lng":13.3312434,"address":"Bundesallee 192","tags":{"amenity":"restaurant","opening_hours":"Mo-Su 11:30-22:00"},"amenity":"restaurant"},{"id":"node-3081710709","name":"Robbengatter","lat":52.48823,"lng":13.3383776,"address":"Grunewaldstraße 55","tags":{"amenity":"restaurant","opening_hours":"08:00-02:00"},"amenity":"restaurant"},{"id":"node-3081710710","name":"Taverna Ousia","lat":52.4882032,"lng":13.3379958,"address":"Grunewaldstraße 54","tags":{"amenity":"restaurant","opening_hours":"We-Mo 17:00-24:00"},"amenity":"restaurant"},{"id":"node-3081710993","name":"Lounge Bar Café","lat":52.4881171,"lng":13.3373979,"address":"Grunewaldstraße 53","tags":{"amenity":"bar","opening_hours":"Su-Th 12:00-24:00; Fr,Sa 12:00-24:00+"},"amenity":"bar"},{"id":"node-3084834450","name":"American Bagel","lat":52.5004048,"lng":13.3366841,"address":"Nürnberger Straße 45a","tags":{"amenity":"restaurant"},"amenity":"restaurant"},{"id":"node-3084845244","name":"Hasir","lat":52.5006477,"lng":13.3369484,"address":"Nürnberger Straße 46","tags":{"amenity":"restaurant"},"amenity":"restaurant"},{"id":"node-3084904043","name":"Toro Negro","lat":52.5004976,"lng":13.3367901,"address":"Nürnberger Straße 46","tags":{"amenity":"restaurant"},"amenity":"restaurant"},{"id":"node-3085295820","name":"Cafe Lützow","lat":52.5059443,"lng":13.3481187,"address":"Keithstraße 38","tags":{"amenity":"restaurant"},"amenity":"restaurant"},{"id":"node-3110867996","name":"Schäfer's","lat":52.4606262,"lng":13.3850392,"address":"Tempelhofer Damm 200","tags":{"amenity":"public_bookcase","opening_hours":"Mo-Fr 06:00-18:00; Su 08:00-18:00; Sa 07:00-18:00"},"amenity":"public_bookcase"},{"id":"node-3110904423","name":"Trattoria da Nicoletta Ristorante","lat":52.4585086,"lng":13.3789403,"address":"Friedrich-Wilhelm-Straße 68","tags":{"amenity":"restaurant","opening_hours":"Mo Ruhetag, Di-So 11:00-22:00"},"amenity":"restaurant"},{"id":"node-3136935125","name":"Bar Centrale","lat":52.4931716,"lng":13.384595,"tags":{"amenity":"pub"},"amenity":"pub"},{"id":"node-3136935127","name":"Kreuzberger Himmel","lat":52.4928619,"lng":13.3863746,"tags":{"amenity":"restaurant","opening_hours":"Tu-Sa 16:00-23:00"},"amenity":"restaurant"},{"id":"node-3136948129","name":"Yorcks","lat":52.4932202,"lng":13.3843452,"tags":{"amenity":"pub"},"amenity":"pub"},{"id":"node-3143316685","name":"Back Titan","lat":52.4798698,"lng":13.3523332,"address":"Dominicusstraße 54","tags":{}},{"id":"node-3149329260","name":"Blanke Helle","lat":52.4604033,"lng":13.3706252,"tags":{"amenity":"cafe","opening_hours":"Mo-We,Fr,Sa 16:00-21:00"},"amenity":"cafe"},{"id":"node-3157844842","name":"KaDeRi","lat":52.4680516,"lng":13.342329,"address":"Cranachstraße 58","tags":{}},{"id":"node-3157916989","name":"Bar 55°","lat":52.4692985,"lng":13.3332592,"address":"Rheinstraße 55","tags":{"amenity":"bar","opening_hours":"Tu-Th 17:00-24:00, Fr,Sa 17:00-02:00"},"amenity":"bar"},{"id":"node-3157916990","name":"Ristorante Barolo","lat":52.4705605,"lng":13.3346022,"address":"Rheinstraße 62","tags":{"amenity":"restaurant","opening_hours":"Tu-Fr 12:00-23:00; Sa,Su 12:00-23:30"},"amenity":"restaurant"},{"id":"node-3157916992","name":"Frau Behrens Torten","lat":52.4711198,"lng":13.3352295,"address":"Rheinstraße 65","tags":{"amenity":"cafe","opening_hours":"Mo-Fr 11:00-18:00; Sa,Su 11:00-19:00"},"amenity":"cafe"},{"id":"node-3157919936","name":"Levi's Kitchen","lat":52.4711325,"lng":13.335609,"address":"Dickhardtstraße 60","tags":{"amenity":"restaurant"},"amenity":"restaurant"},{"id":"node-3158730480","name":"Pizza Slice","lat":52.4968333,"lng":13.3848313,"tags":{"amenity":"restaurant","opening_hours":"Mo-Fr 11:00-20:00"},"amenity":"restaurant"},{"id":"node-3159002885","name":"Café Imparator","lat":52.4711782,"lng":13.3446222,"address":"Vorarlberger Damm 1","tags":{"amenity":"pub"},"amenity":"pub"},{"id":"node-3159002886","name":"Gela's Bistro","lat":52.4711981,"lng":13.3444328,"address":"Vorarlberger Damm 1","tags":{"amenity":"restaurant","opening_hours":"Mo-Fr 07:00-17:00"},"amenity":"restaurant"},{"id":"node-3161789870","name":"Italy Eis","lat":52.4789989,"lng":13.3439518,"address":"Innsbrucker Platz 4","tags":{"amenity":"ice_cream"},"amenity":"ice_cream"},{"id":"node-3161800160","name":"Atlantik Fischrestaurant","lat":52.4792535,"lng":13.3445743,"address":"Martin-Luther-Straße 134","tags":{"amenity":"restaurant","opening_hours":"Mo-Su 12:00-24:00"},"amenity":"restaurant"},{"id":"node-3162460271","name":"Mezban","lat":52.485053,"lng":13.3522209,"address":"Eisenacher Straße 59","tags":{"amenity":"restaurant","opening_hours":"11:00-22:00"},"amenity":"restaurant"},{"id":"node-3163411209","name":"Amici Amici","lat":52.4927046,"lng":13.3872113,"address":"Mehringdamm 40","tags":{"amenity":"restaurant","opening_hours":"11:30-23:00"},"amenity":"restaurant"},{"id":"node-3163411214","name":"Galander Kreuzberg","lat":52.4919033,"lng":13.3831496,"address":"Großbeerenstraße 54","tags":{"amenity":"bar","opening_hours":"We-Su 18:00-01:00"},"amenity":"bar"},{"id":"node-3163411215","name":"Phantasia","lat":52.4922693,"lng":13.3870016,"address":"Mehringdamm 44-46","tags":{"amenity":"restaurant","opening_hours":"Mo-Sa 11:30-23:00; Su 14:00-23:00; PH 14:00-23:00"},"amenity":"restaurant"},{"id":"node-3163972579","name":"Taverna Dionysos","lat":52.4928197,"lng":13.3896711,"address":"Gneisenaustraße 110","tags":{"amenity":"restaurant","opening_hours":"Tu-Su 16:00-24:00"},"amenity":"restaurant"},{"id":"node-3163972953","name":"Disco","lat":52.4927548,"lng":13.3982908,"address":"Schleiermacherstraße 9","tags":{"amenity":"ice_cream","opening_hours":"Tu-Fr 13:00-18:30; Sa 12:00-19:00; Su 12:00-18:30; Mo off"},"amenity":"ice_cream"},{"id":"node-3163977143","name":"Pörx","lat":52.4932861,"lng":13.3954671,"tags":{"amenity":"pub","opening_hours":"Mo-Th 17:00-02:00, Fr 17:00-03:00, Sa 15:00-03:00, Su 15:00-01:00"},"amenity":"pub"},{"id":"node-3163977145","name":"UnterRock","lat":52.4930238,"lng":13.397891,"address":"Fürbringerstraße 20a","tags":{"amenity":"pub","opening_hours":"\"closed for daily business\""},"amenity":"pub"},{"id":"node-3164685739","name":"Cafe am Möckernpark","lat":52.4973706,"lng":13.3809365,"address":"Obentrautstraße 70","tags":{"amenity":"cafe","opening_hours":"Mo-Fr 07:00-23:00, Sa-Su 08:00-22:00"},"amenity":"cafe"},{"id":"node-3168051136","name":"Huong Giang","lat":52.4690984,"lng":13.3319417,"address":"Schmiljanstraße 15","tags":{"amenity":"restaurant","opening_hours":"Mo-Su 11:00-22:00"},"amenity":"restaurant"},{"id":"node-3172145948","name":"Ristorante Allegro","lat":52.5044321,"lng":13.3375029,"address":"Tauentzienstraße 9-12","tags":{"amenity":"restaurant"},"amenity":"restaurant"},{"id":"node-3178164315","name":"DaBangg Teehaus","lat":52.4716126,"lng":13.3361405,"address":"Hedwigstraße 18","tags":{"amenity":"cafe","opening_hours":"Mo,We-Fr 12:00-15:00,18:00-22:00; Sa,Su 16:00-22:00; Tu off"},"amenity":"cafe"},{"id":"node-3178165267","name":"Malafemmena","lat":52.4737796,"lng":13.3383915,"address":"Hauptstraße 85","tags":{"amenity":"restaurant","opening_hours":"Mo-Fr 16:30-23:30; Sa-Su 12:30-23:30"},"amenity":"restaurant"},{"id":"node-3178165275","name":"Offen Bar","lat":52.4722481,"lng":13.3364059,"address":"Hauptstraße 80B","tags":{"amenity":"bar","opening_hours":"Su-Th 17:00-03:00, Fr,Sa 17:00-04:00"},"amenity":"bar"},{"id":"node-3196229861","name":"Vereinsheim Fröhliche Eintracht","lat":52.4513387,"lng":13.3997762,"tags":{"amenity":"restaurant"},"amenity":"restaurant"},{"id":"node-3218209921","name":"Pier 13","lat":52.4547611,"lng":13.3871806,"address":"Tempelhofer Damm 227","tags":{"amenity":"restaurant","opening_hours":"Tu-Th 17:00-22:00; Fr,Sa 17:00-24:00"},"amenity":"restaurant"},{"id":"node-3218209930","name":"iLand","lat":52.4544266,"lng":13.3857047,"address":"Tempelhofer Damm 227","tags":{"amenity":"bar","opening_hours":"Th 18:00-24:00; Fr,Sa 00:00-03:00,18:00-24:00"},"amenity":"bar"},{"id":"node-3219121362","name":"Café M","lat":52.4942071,"lng":13.3536452,"address":"Goltzstraße 33","tags":{"amenity":"cafe","opening_hours":"Mo-Fr 18:00-02:00, Sa 13:00-02:00, Su 18:00-24:00"},"amenity":"cafe"},{"id":"node-3219121461","name":"Rani","lat":52.4943941,"lng":13.3536968,"address":"Goltzstraße 32","tags":{"amenity":"restaurant"},"amenity":"restaurant"},{"id":"node-3219121866","name":"One and only","lat":52.4938419,"lng":13.3535854,"address":"Goltzstraße 35","tags":{"amenity":"restaurant","opening_hours":"Mo-Su 12:00-23:00"},"amenity":"restaurant"},{"id":"node-3219122463","name":"Sironi","lat":52.493573,"lng":13.353491,"address":"Goltzstraße 36","tags":{"amenity":"restaurant","opening_hours":"Mo-Fr 17:00-23:00; Sa-Su 13:00-23:00"},"amenity":"restaurant"},{"id":"node-3219123419","name":"Phojito","lat":52.4941243,"lng":13.3536562,"address":"Goltzstraße 34","tags":{"amenity":"restaurant","opening_hours":"Mo-Sa 11:30-23:30; Su,PH 12:00-23:30"},"amenity":"restaurant"},{"id":"node-3225762383","name":"Ditsch","lat":52.4707932,"lng":13.3850428,"tags":{"opening_hours":"Mo-Fr 06:00-20:00; Sa,Su 09:00-17:30"}},{"id":"node-3225776361","name":"Blue Eis-Café","lat":52.471258,"lng":13.3850948,"address":"Tempelhofer Damm 104","tags":{"amenity":"cafe","opening_hours":"11:00-21:00"},"amenity":"cafe"},{"id":"node-3229575640","name":"Al-Khawali","lat":52.4898317,"lng":13.3593766,"address":"Hauptstraße 5","tags":{"amenity":"restaurant"},"amenity":"restaurant"},{"id":"node-3229575642","name":"Die Feinbäckerei","lat":52.4888331,"lng":13.3578535,"address":"Vorbergstraße 2","tags":{"amenity":"restaurant","opening_hours":"Tu-Fr,Su 12:00-24:00; Sa 15:00-24:00; Mo off; Dec 24,31 off"},"amenity":"restaurant"},{"id":"node-3235853928","name":"Kolonja","lat":52.4960986,"lng":13.3412814,"address":"Viktoria-Luise-Platz 6","tags":{"amenity":"restaurant"},"amenity":"restaurant"},{"id":"node-3238482917","name":"Chay Village","lat":52.4898342,"lng":13.3488356,"address":"Eisenacher Straße 40","tags":{"amenity":"restaurant","opening_hours":"Mo-Su 11:30-22:00"},"amenity":"restaurant"},{"id":"node-3269957280","name":"La Maison Chay","lat":52.4831592,"lng":13.3818144,"address":"Manfred-von-Richthofen-Straße 18","tags":{"amenity":"restaurant","opening_hours":"Mo-Fr 11:30-22:00; Sa 12:00-22:00"},"amenity":"restaurant"},{"id":"node-3271499063","name":"Teefeinkost Tan","lat":52.4871221,"lng":13.3589968,"address":"Crellestraße 7","tags":{"opening_hours":"Mo,Tu,Fr 12:00-19:00; Sa 11:00-15:00; Th 14:00-19:00"}},{"id":"node-3317552337","name":"Marti - Fischrestaurant","lat":52.4550878,"lng":13.3852339,"tags":{"amenity":"restaurant"},"amenity":"restaurant"},{"id":"node-3317574757","name":"Bergterrasse Marienhöhe","lat":52.452143,"lng":13.3673602,"tags":{"amenity":"restaurant","opening_hours":"Sa,Su 11:00-21:30; Mo-Th 12:00-21:30"},"amenity":"restaurant"},{"id":"node-3343102776","name":"Le Bretagne","lat":52.49196,"lng":13.3510758,"tags":{"amenity":"cafe","opening_hours":"Mo-Fr 08:00-17:00, Sa,Su 09:00-17:00; PH 09:00-17:00"},"amenity":"cafe"},{"id":"node-3343102817","name":"Kaiju","lat":52.4897183,"lng":13.3506368,"address":"Grunewaldstraße 21","tags":{"amenity":"restaurant"},"amenity":"restaurant"},{"id":"node-3343102819","name":"Café Adele","lat":52.4896334,"lng":13.3497962,"address":"Grunewaldstraße 24","tags":{"amenity":"cafe"},"amenity":"cafe"},{"id":"node-3343103839","name":"Jones Ice Cream","lat":52.4905007,"lng":13.3534034,"address":"Goltzstraße 3","tags":{"amenity":"ice_cream","opening_hours":"Mo-Su 12:00-19:00"},"amenity":"ice_cream"},{"id":"node-3343107442","name":"Onette","lat":52.4901943,"lng":13.3551678,"address":"Grunewaldstraße 11","tags":{"amenity":"restaurant","opening_hours":"Tu,We,Su 10:00-15:00; Th-Sa 10:00-22:00"},